t,x,y,z,vx,vy,vz,roll,pitch,yaw,gt_x,gt_y,gt_z,gt_vx,gt_vy,gt_vz,gt_roll,gt_pitch,gt_yaw
0.0,0.0,0.0,-0.09819945778296543,0.022892788745038604,-0.006736587405621267,-0.018450440780566187,-0.00014367734664100237,-0.006386956063665127,2.856582611654446e-05,0.0,0.0,-0.10055485334497738,0.0012650971845659174,0.0018655618088189805,-0.01442304968222427,-7.813619268992279e-05,-0.006659099886899457,6.794677759711745e-05
0.03500000000000014,0.0008146776690623331,-0.00023816462399516188,-0.0987235074749151,0.02342576825571996,-0.006869861753642681,-0.01886119550829335,-0.00018903396494351915,-0.00617950768694131,0.00010071375552422879,4.6137525695488194e-05,-8.26791798908726e-05,-0.10110239551093182,0.0012229360768037582,-0.002336172573952659,-0.015163356477049002,-4.601296000856249e-05,-0.006296434067041372,0.00015416559096534383
0.07000000000000028,0.000128385365336256,-1.5625638270721012e-05,-0.10045914798729427,-0.009476148381963867,0.0032463742616499758,-0.013582288836630596,-0.00015035126427909168,-0.005933827696994244,0.00016288343284642795,9.238932273403222e-05,-9.307032507004665e-05,-0.10159890365570087,0.0012420113823258952,0.0003256591211545979,-0.01358032935859486,-5.919887667772724e-05,-0.005903329331440931,0.0001426425222749529
0.09999999999999964,-0.00015598213165186892,8.279633121212153e-05,-0.10142449732165915,-0.009640733265541712,0.003322636187888861,-0.013830603189035173,-0.00015490324074107778,-0.005676980081020576,0.00019164489641765312,0.0001315056948669735,-0.0001289988369756259,-0.10195968224575762,0.001200815601095233,-0.0024998424750460354,-0.011153511116008078,-3.583878356840708e-05,-0.005549323158126409,0.000167107695186178
0.1349999999999998,-0.0004210668284727187,0.0006681975266632622,-0.1006144710549961,-0.00819437708901205,0.013750127037383209,-0.009075414618337163,-0.00019748289488985543,-0.005372275527654845,0.00016298294912342468,0.00017966522720680385,-1.0333945532865841e-05,-0.1022673697534275,0.0013004867970182858,0.003759678319335628,-0.00814336622506788,-8.527616356271386e-05,-0.00513560757650724,1.275843757660329e-06
0.16999999999999993,-0.0007089837826938644,0.0011548630091896672,-0.10305620039662244,-0.008350687926622413,0.014064549776946933,-0.009260496945159957,-0.00017035426174327742,-0.005066147733885807,0.00010478683861192552,0.0002235438959137248,3.638681977329444e-05,-0.10248298029573953,0.0011694249559341908,-0.0004818570500854354,-0.005101600543702509,-5.4614313956341735e-05,-0.004788932836093718,-5.3853478179491725e-05
0.20000000000000107,-0.0006751572495673069,0.0014623321513044362,-0.10267434209299608,-0.0021301188256757086,0.011710561772758865,0.0025795153102450286,-0.00013948422117682216,-0.004835865909955218,5.747214895857057e-05,0.0002569318431779895,-7.14262352761813e-05,-0.10257952870337347,0.0010453576958340041,-0.0034137626452017625,-0.0020177747472581308,-2.1465101851489254e-05,-0.004539966017847849,8.134596060835671e-05
0.23499999999999943,-0.0007504859863515928,0.0018767080162250937,-0.1012831096327318,-0.00214769848687979,0.01196772952800984,0.002656441015048472,-0.00017059282412024143,-0.004611985524612727,4.859654228273057e-05,0.0002929816999346348,-7.076780164372542e-06,-0.10259126173877804,0.0010066797133741372,0.0024755859985533704,0.0007328974290153525,-6.311496932578719e-05,-0.004349125092452389,-7.824049471324788e-06
0.2699999999999996,-0.00037877222118960774,0.001335099575355726,-0.10012838260627177,0.006787018224258645,-0.0070763513038798465,0.0027361736417361726,-0.00018331249992487028,-0.004426293207628883,-6.952109392921457e-05,0.00032547034009322573,1.2002446872108481e-05,-0.10247814042065514,0.000926890583977577,-0.00043383121679521804,0.0049254340140092705,-4.248100031051284e-05,-0.004218841120891957,-2.9779525054371286e-05
0.3000000000000007,-0.0001733078501970492,0.0011207765181483597,-0.10116161833457227,0.006936750779459544,-0.007211306656358829,0.002797177945922158,-0.00016568859602905664,-0.004362756453700101,-0.0001559379974391817,0.0003529455929296432,-4.6038249141547625e-05,-0.10223171004339274,0.0008896147199466871,-0.0013746182314737453,0.009065362400488625,-2.291898394802896e-05,-0.004086774565872562,4.197456322122555e-05
0.33500000000000085,0.0002635654814398397,0.0008860944307388496,-0.10186317317675275,0.011180711342149152,-0.006936132254566019,0.009635317705544821,-0.00012710504133695014,-0.004327910878960672,-0.00013371208484569408,0.00037772637815392034,7.398558183238646e-05,-0.10192280403821516,0.0007096483111360875,0.003143746814900392,0.00999719092227649,-6.308577364224128e-05,-0.004129620103459599,-0.00010541064504243666
0.3699999999999992,0.0006579141923098025,0.0006407471243209516,-0.1024609850651359,0.011439627997219759,-0.007084625950170675,0.009842309171347097,-0.0001348244982923852,-0.004411710326008844,-2.7694698710778457e-05,0.0003989480131680873,0.00010426774183565577,-0.10150108073605504,0.0006124624518012501,0.00022455996942570013,0.012713882748097793,-4.600929070558429e-05,-0.004215062818461305,-0.00012628277127663113
0.40000000000000036,0.0010114135452781586,0.0006914983680689334,-0.10115027463371007,0.011839857442396351,-0.0017072448734225532,0.01175070503296638,-0.00015734069249173643,-0.00448607360522546,-2.5720885927338347e-05,0.00041383599473032717,3.021038491828008e-06,-0.10110386207405501,0.0005122663485171498,-0.004167093732970138,0.013655485198629016,-5.99767836346525e-06,-0.004360330678028369,1.146988804203382e-05
0.4350000000000005,0.0014285069460342886,0.0006313829967142925,-0.10262602554212208,0.012102844704259041,-0.0017300033874505516,0.01199803406547062,-0.0001500607826532274,-0.004625838350700738,-0.00010648786725653281,0.00042775602191769157,0.00011268384818301496,-0.10059606958952877,0.00043455598225926784,0.0023892556197848886,0.01488220183887162,-6.298495138988336e-05,-0.004583497415781102,-0.00011619831008189335
0.47000000000000064,0.0023218143074004577,-0.0002419520666035891,-0.10212200562136786,0.021401332237019233,-0.017460051512102837,0.012726030375802111,-0.00014778185056307788,-0.004825596361157202,-0.0001390667266956136,0.0004375511397203269,0.0001392634368241846,-0.1001058511630181,0.0003021736102049359,0.000678937759192826,0.013560293128474201,-5.8534746062302336e-05,-0.004884215899271474,-0.00013088792446521922
0.5,0.0029676878007407897,-0.0007701862622025869,-0.10107678107488027,0.021785831904026054,-0.01775606750231873,0.012948255720175439,-0.00016439854558480957,-0.005032281683835293,-7.228268499659407e-05,0.0004426165311359753,0.00019876437614490617,-0.09970901699063331,0.00022193681200804086,0.002289792924789149,0.013388697413909125,-7.743700066873756e-05,-0.0051746449682064655,-0.0001848537523729247
0.5350000000000001,0.002273469131999703,-7.261131441550078e-07,-0.10032862661410036,-0.007541549862253305,0.010318724635908438,0.00713158959186444,-0.0001546833668535364,-0.005306500334755438,-6.208520021644404e-05,0.00045035465256759716,0.0001452429853017246,-0.09931525671036884,0.00021360103173996163,-6.486272881676925e-05,0.010324068313369423,-6.215003849533598e-05,-0.005551122436407055,-9.639745614758278e-05
0.5700000000000003,0.0020049030759068803,0.00036505040625790623,-0.09947935561513077,-0.007728312493327394,0.010579785546497078,0.0072632226390965116,-0.00016488642635836825,-0.005564628569366902,-9.424226455356785e-05,0.0004574957526397583,0.00013366692912943689,-0.09898934771790988,0.00032383372437637327,-0.0010784047008066183,0.008956148868888639,-6.810121181857976e-05,-0.00591131362850103,-6.475129836806763e-05
0.5999999999999996,0.0023042808875502335,-0.0005499023419316285,-0.10009168983742711,0.002971109245692105,-0.014282676291031748,0.007310920176962554,-0.0001576830761345072,-0.005769685823580062,-2.1317754353766812e-05,0.00046878535294414547,9.39321169968515e-05,-0.09873588840578137,0.00039450812142253946,-0.00026125765861645395,0.0073845264459512765,-6.007836726874022e-05,-0.006148798374066062,-8.385486746800713e-06
0.6349999999999998,0.00240772616373168,-0.0010549672950060807,-0.09810048595818444,0.0030264132569470803,-0.01458074978120294,0.007444334194673274,-0.0002005092655381624,-0.006021204211546395,1.5305176965796363e-05,0.0004819968552878249,4.969790838088487e-05,-0.09857137320533457,0.0004972300447358966,-0.0026833140008479814,0.004008114030359328,-6.300444245790389e-05,-0.00642003891939085,5.085997715889109e-05
0.6699999999999999,0.0015448463455172562,-0.0013721352556229516,-0.09735016482409264,-0.01464828821303854,-0.011245155582798816,0.009230124212365354,-0.00019740910775256637,-0.0062087137326272135,8.24278750934937e-05,0.0004992504084850857,1.2476508663913047e-05,-0.09849942213701117,0.0004934909347731034,-0.0006624333435007802,0.0006767223050619868,-8.375198401843202e-05,-0.006615284106878868,8.984880395176257e-05
0.6999999999999993,0.0010994795147994257,-0.0017122714982645715,-0.0975247089872937,-0.014927422429764192,-0.011433731504837397,0.009369550955284467,-0.00017516098015812887,-0.006312396194561477,-1.0549859659647612e-05,0.0005122081955386548,8.13005879356759e-05,-0.09854172843521102,0.00038824986895811045,0.0037356256048807746,-0.0025126792556511004,-0.00012358369886131214,-0.006759004203665611,-4.101001379104019e-06
0.7349999999999994,0.0006939861259738639,-0.0021882932699964653,-0.09936237965939654,-0.012896279940150635,-0.013039885976070309,0.0008639377041923524,-0.00019267231218478281,-0.006387573926439405,-2.0472348147837494e-05,0.0005347129010822011,3.045066868549175e-05,-0.09868599363095466,0.0005744350892514477,-0.00015495668802777054,-0.005532314452005992,-9.629753891166656e-05,-0.006832414233237867,5.37767900301159e-05
0.7699999999999996,0.00023759449688758039,-0.0026490438572762554,-0.09889147672265608,-0.013173263118801515,-0.013288508804691901,0.0008549006739286824,-0.00018475102862947074,-0.006495250397655639,8.56038170544693e-05,0.0005580218561322958,6.9384896825336e-05,-0.09892485525826017,0.0006862225679644096,0.0001548037708034352,-0.007397494500098195,-0.0001134609283010603,-0.006828416544772238,3.611222463505147e-06
0.8000000000000007,0.0014788281933065112,-0.003345473489077976,-0.09960810466100156,0.019221435721419766,-0.019370632379491326,-0.007533399374068495,-0.00019009183119012008,-0.006492552502931571,0.00011210972323683066,0.0005830810006868248,-2.6189326661709678e-05,-0.09919671787965961,0.0007464009909263019,-0.0032870851876579815,-0.010412891932903928,-8.403427602953362e-05,-0.0067741355207268875,0.00011869653654466654
0.8350000000000009,0.002160655697046862,-0.004030017028754928,-0.09939268139487467,0.0196407196644941,-0.019744480105600815,-0.007715447050770763,-0.00016842671465777675,-0.006424721742158025,2.221962803350408e-05,0.0006110156161314171,5.7623594327939965e-05,-0.09958357529509414,0.0007996166651848608,0.0008046508520494198,-0.011074375025551126,-0.00012761825351676351,-0.006644504432638779,8.361001608792482e-06
0.8699999999999992,0.0012745968592966922,-0.0028654304912277707,-0.09913621123905614,-0.008868785924846634,0.01392153682809294,-0.008444430145004844,-0.00020575127954902683,-0.006286138078875236,0.0001264685604662752,0.0006435922857690448,6.651845661615164e-05,-0.09998711913747282,0.000867744621368561,-2.9647884389114075e-05,-0.011971406258855864,-0.00012632409782710466,-0.0064261922145471,-1.7181252857266152e-06
0.9000000000000004,0.0010073181774928192,-0.0024430863235250667,-0.10003353008096383,-0.009052802661926762,0.014240473814197685,-0.008614137162908264,-0.0002290321332218959,-0.006140307179013593,9.748802493803052e-05,0.00067339236490227,-1.9748101337569627e-05,-0.10037292689602834,0.0009187685377752258,-0.0034396442126447963,-0.013169634348775206,-9.949402269847487e-05,-0.0062352378755570394,0.00010333424579350129
0.9350000000000005,0.0006882762654854407,-0.002818777517235348,-0.10136349954882462,-0.009270556970477628,-0.0014954546738934482,-0.008242318663008064,-0.00021168869433330073,-0.005923232052442717,8.213294700087914e-05,0.0007060321005898382,-6.235907011811576e-05,-0.1008525339792127,0.0008824683462576527,-0.0017300381046328752,-0.01307420736778565,-0.00010980075220193625,-0.006018899570961783,0.00014104633432009952
0.9700000000000006,0.0003617537513705277,-0.0028708216904943396,-0.101384993829015,-0.009485285179835046,-0.0014732753590465109,-0.00842509048067086,-0.00021328176782287045,-0.005684655301248844,0.00012268497385203858,0.0007402738149648869,-0.00010721191913276339,-0.10126651168023844,0.0009125492286913056,-0.0014834608155788204,-0.011139977831585813,-0.00011027776551265312,-0.005737737202639745,0.00017395936057257473
1.0,0.0008499213950230872,-0.002048743279403952,-0.10150393454205187,0.00477677273329391,0.014720291353228276,-0.011164688831911462,-0.0001849651457312973,-0.005482446300455912,8.909727599526462e-05,0.000769046612745683,-0.00017067923609797138,-0.10156210960007189,0.0008751240649533136,-0.0018670457990080263,-0.00927130839500589,-9.799866528817509e-05,-0.005469630011881341,0.00022673621672672604
1.0350000000000001,0.0010207775863122909,-0.0015272151932220635,-0.1017645091696977,0.004867827318491891,0.015084852251732173,-0.011402806923968,-0.00015107131111458114,-0.005236811014164288,8.409658082086932e-05,0.000804121912502342,-0.00010992297090644909,-0.10183033420494701,0.0009401517033089368,-0.00028010322741280156,-0.006420841281191001,-0.00010574794882254388,-0.005167216082855234,0.00012442421046947303
1.0700000000000003,-0.0002690224937182545,-0.0009486843122500244,-0.10219224243382996,-0.019989301462373987,0.016205176364337603,-0.006351478315735903,-0.00023166248450445795,-0.005051381602512172,2.8234360091694555e-05,0.0008385248891347175,-4.605894269476605e-05,-0.10200404093616586,0.000926694408834547,0.0010926590812709676,-0.003986173418662602,-0.00011575558083019689,-0.004887423252578699,3.0824540172789814e-05
1.0999999999999996,-0.0008735987562217967,-0.00045768977540326834,-0.10351708478674482,-0.02037870643766837,0.016531818038174606,-0.006461545289994319,-0.00016350646348151088,-0.004851094868956185,7.311788889374783e-05,0.0008640998180053927,-0.00011390908426476281,-0.10206753807092182,0.0008143366487826977,-0.0017591336270060727,-0.0010869629449933946,-8.15089984518581e-05,-0.004666443108388691,0.00010535723508802901
1.1349999999999998,-0.00026988010356628067,-0.0002886831345291097,-0.10350139214961018,0.002657347189909842,0.009536939841950698,0.0024447383501637887,-0.0002084742236214687,-0.004667152305516174,6.842411996377253e-05,0.000895043336873957,3.2089345641806894e-07,-0.10205181744209782,0.0008781021944989305,0.002370367144863113,0.002023940534009815,-0.00011587271559210024,-0.004481145783354159,-4.428962859871229e-05
1.17,-0.00017674730995760612,4.9134552084452096e-05,-0.10071281835826085,0.0026880451714532683,0.009765757401737574,0.00251501682448918,-0.00018123159250071905,-0.00453138546498355,4.906781818547755e-05,0.0009207403855509,9.680820126972635e-05,-0.10195158776554678,0.0006840569396584516,0.0028243544006109813,0.0035082525945047283,-0.00011994188109538807,-0.004377758534223906,-0.00015381782780072022
1.200000000000001,0.00010999555527040072,-0.0005269390695458055,-0.10081784141630123,0.0065539580791664775,-0.006264640617416717,0.004134091470632484,-0.00019794039128173677,-0.0044501602757911485,-6.911515352703289e-05,0.0009385864154811695,0.00015046350162182533,-0.10180161235564981,0.000585999163271389,0.001477971267581931,0.006091361555563182,-0.00011079768995558738,-0.004346361296109026,-0.00019998001364439534
1.2349999999999994,0.0003406501832828174,-0.0007481719684120248,-0.10200171659153057,0.006665317869703813,-0.0063771070603309,0.0042173473658806415,-0.00019684407277997814,-0.00444908472419714,-0.00019278341343742514,0.0009562075549804924,5.340398530775726e-05,-0.1015558033118453,0.0004779585239854295,-0.0013738212991609607,0.0073371985153606505,-8.773026470087834e-05,-0.004392443286516485,-5.9762345983676606e-05
1.2699999999999996,0.000297915441045446,0.001792852848352523,-0.10050203114087708,0.00207143316811198,0.04069575113544488,0.012668342585072878,-0.00016820882535650838,-0.004475717372570464,-0.00011124399079376346,0.0009711981136222292,9.093981922987946e-06,-0.10123147863596814,0.0004453783586399313,0.00015558642180661447,0.009961094742525878,-9.037083544955473e-05,-0.004481109383260859,-1.4390440382636475e-06
1.3000000000000007,0.000358490982783663,0.003025587677113818,-0.1018128819159756,0.0020787853958097458,0.041482737812202686,0.012891883615623101,-0.00017645449063152793,-0.0045782509685676764,-1.64904556467782e-05,0.0009811088489959374,9.022868330482454e-05,-0.10092852071719174,0.00031376328783657537,0.002244019511483901,0.01005880503495941,-0.00011319328892245478,-0.004615243587963239,-9.858727549056926e-05
1.3350000000000009,0.0006910480861038043,0.00264198078994461,-0.10054688432592229,0.0064926980820132485,0.011092548675378566,0.007542837458373697,-0.00018678388822079836,-0.004736249644915701,-8.735314753094414e-05,0.0009910243507573748,0.0001520832983076317,-0.10050975845052725,0.0002663725418197427,0.00212652525080615,0.011641319105775748,-0.00011900687022636449,-0.004772892630181895,-0.00015791975853850644
1.3699999999999992,0.0009188932686115397,0.003034296534876758,-0.09985912707224998,0.006597940416611436,0.011323963465486031,0.007689164185251229,-0.00018025611180849663,-0.004848458915511334,-6.968608948998423e-05,0.0009996847658779728,8.71750078938019e-05,-0.10011948667357867,0.00026081929313178287,-0.0011988847418384252,0.010844618331287536,-9.33502292850743e-05,-0.005007002216890193,-5.989554652566828e-05
1.4000000000000004,0.00038830636551527575,0.0027727193320560405,-0.09956422089862826,-0.006211455820334777,0.0008238831406295333,0.007906967596625236,-0.00014189512285156527,-0.004996724766487937,-2.3185200278774694e-05,0.0010019017187730128,0.00013659298969385678,-0.09983519371178862,9.79362799566647e-05,0.0010450234177493745,0.00896174057640348,-0.00012048601451757651,-0.005272032505268701,-0.00010931445616441031
1.4350000000000005,0.00016678904787430227,0.002801890650714468,-0.09721272190381569,-0.006365893051111016,0.0008398960680189305,0.008061884595122137,-0.00013056980781422922,-0.00519658318771299,-2.8632014881679883e-05,0.0010104555419432337,0.00011666999406562833,-0.09946872983960851,0.00019837307221267215,0.001715057749844005,0.00952701396890055,-0.00012806684346200177,-0.005493114588305718,-7.298510670114684e-05
1.4700000000000006,0.00028120523850110046,0.0023479327225845014,-0.09851178609005729,-0.0008044082150462373,-0.007262540261592676,0.004629383596324033,-0.00018597521814145426,-0.005436258531866136,-4.854022978983964e-05,0.0010161239241828213,0.0001206133262559496,-0.09919361231652993,0.00025791234118706277,-0.0010454267409006376,0.007415291170464557,-0.00011920229461088085,-0.005752808438202486,-6.368846520137913e-05
1.5,0.00025589326789803024,0.002128026791153771,-0.09959981218662506,-0.000830523818109441,-0.007399820163897175,0.0046874016535980445,-0.00016697228837569964,-0.005578734371906701,-5.3007387870174234e-05,0.001025053350019789,7.091142091526937e-05,-0.09899342204043626,0.00029221238695576927,-0.00039364364879299746,0.005684792263192828,-0.0001281787598279533,-0.0059373496167718426,5.015351017438127e-06
1.5350000000000001,0.0007691784726589351,0.0016705804630122844,-0.10002083024710373,0.008307830029480101,-0.010858577761609922,0.004905891449936917,-0.00022982096285462106,-0.005757304326493352,1.7858234615975018e-05,0.0010349618860494567,3.822922218079014e-06,-0.09888039495314438,0.00034665548125571667,-0.0022424616577351878,0.002773008971372556,-0.00011225883645004076,-0.006165794007942795,8.550343747388948e-05
1.5700000000000003,0.0010618447686497196,0.001286536754348545,-0.0979888617675897,0.008473353188151123,-0.011089216406105606,0.0049927602046864195,-0.0001938561154783969,-0.005918679421641926,7.870381373775714e-05,0.0010453430243937412,8.025152682305713e-05,-0.0988265333276332,0.0003115591006642009,0.0025115965922440724,0.0008152391817102079,-0.00015936531517262743,-0.006313738307507086,-1.490466785157059e-05
1.5999999999999996,0.0006515000814247135,0.0015723112665272498,-0.09811886018451332,-0.0026081000862063775,-0.0008035069173750742,0.006885949420876614,-0.00021981886191335678,-0.0060223926870284225,-7.217484502941574e-06,0.00105739546476169,0.00011331296320169795,-0.09881862660057854,0.0004082745508751309,0.0011796301916537312,-0.0005252453792124195,-0.00016067420000886827,-0.006365711389523485,-5.229512445816369e-05
1.6349999999999998,0.0005573962380581027,0.0015441765463878442,-0.10003226500157325,-0.0026850881372411095,-0.0008077376768405031,0.006990465578297744,-0.00025089359417362905,-0.006098415721036422,-0.00010578177844067224,0.001072441206987351,3.683474883521453e-05,-0.0989850248929253,0.0004104319721543197,-0.0021860232961979495,-0.005745624816011328,-0.00013503674194186518,-0.006481308286655747,4.6662440289197646e-05
1.67,0.0006210775941540153,0.0013789205649731417,-0.09872116174301482,-0.00017909254561487842,-0.0030376629867987504,0.0019720303515526894,-0.00020954134997408505,-0.006133748630406722,-1.5277903369081965e-05,0.0010916373362177545,-2.5052522809530934e-05,-0.09919975272310552,0.000513024506669351,-0.0007979762239301554,-0.0067462634924848365,-0.00014237766339677695,-0.006496439872641319,0.00011292916535577213
1.6999999999999993,0.0006150371505313917,0.001287159728149091,-0.09939614492122928,-0.00019954975508973405,-0.003080495254152993,0.0019799087484386746,-0.00022031324956728326,-0.006154481985368498,7.017307010315223e-05,0.0011070949364180294,7.899707884161603e-05,-0.09942804220474678,0.0004651557660245116,0.003977206247649584,-0.00797800957972958,-0.00019045784045413212,-0.006457077450206327,-2.5288076488537505e-05
1.7349999999999994,-0.0003560503368830875,0.0016372583754377234,-0.10076174331970833,-0.016460339621062303,0.004570264223161757,-0.012431501612695683,-0.00023395837661910332,-0.006132965702050353,-1.6839911797461585e-05,0.0011327984378606264,-3.311867598894758e-05,-0.09972210282409491,0.0006675344166560956,-0.0030748114064840446,-0.00902184123378653,-0.0001360697875006381,-0.006325459702374528,0.00010923828675557496
1.7699999999999996,-0.0009360003100268993,0.0017991450002045172,-0.10089353460489292,-0.01683305339133767,0.004685752485130479,-0.012723590085954584,-0.0001983151209352663,-0.006008526677152125,7.998662734909347e-05,0.0011571107085650567,-5.068282976162763e-05,-0.1000737868583064,0.0006516115735452993,8.655269108359502e-05,-0.010075309101792539,-0.00015480696617641904,-0.006182015944303152,0.00011457989644172271
1.8000000000000007,-0.0008615301967224848,0.0005598184862082422,-0.10170098917842552,-0.007344953387757869,-0.018479766251175533,-0.011573515930876965,-0.00021903458434469059,-0.005900166152886578,0.00014455468022056547,0.0011802371458236038,-3.374019022720691e-05,-0.10036019435261403,0.0007228321298890521,0.00033461784791405814,-0.009591376511440474,-0.00016571793049120653,-0.00599767124406046,7.994580924983143e-05
1.8350000000000009,-0.0011189623964824175,-9.387169595363905e-05,-0.10139618288349084,-0.0075057068609680755,-0.01886701845432981,-0.011832008524038429,-0.00020847720450545282,-0.0057500489914485975,6.849029899980152e-05,0.0012075092866656873,-7.71502976982245e-05,-0.10069026132685562,0.0006945511455813671,-0.0021805115710610366,-0.009582441335450498,-0.00013837723512943176,-0.005761754000407232,0.00011995608008225303
1.8699999999999992,-0.0009757869874888608,-0.0006912980051379958,-0.10211722199119322,-0.001233166610745684,-0.01815031468174766,-0.011137524076502814,-0.0001905685272238778,-0.005571081684477622,0.00017343941905911828,0.0012346608871296454,-3.4948954179179243e-05,-0.10100762646611984,0.0007168487475161861,0.0006491373285601922,-0.008678260008852719,-0.0001596379117613876,-0.005530696867690484,5.432746441498494e-05
1.9000000000000004,-0.0010111954315803057,-0.0012405688550826011,-0.10240946103749593,-0.0012564560272920744,-0.018462593190292864,-0.01134555608160781,-0.00020586433117220087,-0.005422028449467042,0.00012738514986132546,0.0012585699148051077,-4.06928506632902e-05,-0.10123058034934737,0.0007762463482493614,0.0013266776669816746,-0.006741568269158183,-0.00015679592182834585,-0.005309959812287084,5.1844717789113114e-05
1.9350000000000005,-0.0018969265511045857,-0.00029154604706725824,-0.10186228230850247,-0.014551036055195254,0.006401082583778361,-0.008310521553596573,-0.0002270125305843252,-0.0052538444092857794,0.00010491187266170598,0.0012829351363277126,-4.5284188162180385e-05,-0.1014768778058037,0.000699161461910538,0.00018838322398987014,-0.00574704555693034,-0.00014857708018294432,-0.005121605014143258,4.762500252663155e-05
1.9700000000000006,-0.002410298928658919,-6.427684329089918e-05,-0.10190112342615976,-0.014870489431359601,0.006592531995437412,-0.008482922071721077,-0.0002196498310684802,-0.00507341597972255,6.622076796203301e-05,0.0013088082088672515,-5.450800137913038e-05,-0.10160223511677396,0.000706196092422157,-0.0008020642807120963,-0.002638704639621686,-0.00013363150079559731,-0.004890811245598277,5.105554267154185e-05
2.0,-0.001103328288969821,0.0001917782904273923,-0.10222791671640152,0.012282540752153182,0.0076252185539544826,-0.0011555490834709303,-0.00018982407270096147,-0.004949645606913134,3.1174283424917355e-05,0.001327461155758769,-0.0001302289276728644,-0.10165217636857984,0.000558789029778941,-0.002342865610096675,-0.0011425326762407137,-0.00011283128489360479,-0.004722446147995984,0.00013391138242128603
2.035,-0.000668463960643309,0.00046234203872920314,-0.10118168209828582,0.012556137261640288,0.007835447611853397,-0.0011661704642023096,-0.0001648221951406903,-0.004787823986659223,3.509054835371118e-05,0.0013500932356935722,-7.136527336409786e-05,-0.10163576490977187,0.0005832161512815699,-0.0007133340256367492,0.0015131926199241097,-0.00012154627938709822,-0.004579069720704766,4.8472731696653786e-05
2.0700000000000003,-0.0009151147755587924,0.0005466077151071846,-0.10026669294484236,0.0024257584648808006,0.005124911563228807,0.0030596994418772283,-0.000209573669781804,-0.004726494815464388,9.104733648790386e-06,0.0013714122050454414,1.3286499932638918e-05,-0.10152833378710893,0.0005938904416282599,0.003076525396229998,0.003555744973561501,-0.00014515047753019375,-0.0044700054598638805,-6.0842420217348146e-05
2.0999999999999996,-0.0008419968025705354,0.0007023060888672449,-0.09994339462036805,0.0024774575692845247,0.005253790683269699,0.0031202596727837317,-0.00019926184235519176,-0.004663846345658307,-3.2959199602888845e-05,0.001386146919411857,0.00010699012847895334,-0.10140492813704824,0.00046440525987119003,0.002749445119276178,0.004782657687241752,-0.00014744442499526591,-0.004447979705869005,-0.00016729973273428442
2.135,-0.0006201380383358962,0.000501142378566256,-0.09962575160852793,0.004632505027984735,-0.0006025680314643012,0.005523699400356463,-0.00023211106001319598,-0.00466105134362449,-6.978832763193668e-05,0.0013993621720687075,0.00012200336191424562,-0.10119272448120809,0.0003882987915828247,-0.0005471852169287553,0.006633677365695002,-0.00012830090120704256,-0.004471235757897234,-0.00015975351835265304
2.17,-0.0004570810906229933,0.0004804596705115915,-0.09947010108498944,0.004737703274770411,-0.0005808851305140195,0.005646993877491013,-0.00019194358565943761,-0.004715013002938751,-0.00010275828394279429,0.001410124832047721,1.834321302590602e-05,-0.10094356773121196,0.0002938849541297017,-0.0022060746801211097,0.007209684586156053,-0.00010236552361590746,-0.004559991897157595,-1.5802572433402507e-05
2.200000000000001,0.00033678661295515055,0.00025711344139146657,-0.09863804632868778,0.01498287795379838,-0.00377178149527424,0.010791474949769508,-0.00022592870922233388,-0.004809411167002064,-8.891442342573441e-05,0.0014155016391095292,5.6067482502001986e-05,-0.10073771427793593,0.00019794306016609586,0.001685884659371294,0.007304577505816624,-0.0001310555071005099,-0.004712692234069881,-5.850454823935732e-05
2.235000000000001,0.0008649330507282532,0.0001243416589590384,-0.09858222609545919,0.015304059181630691,-0.003818366529543482,0.011012568259502586,-0.00022908870403659523,-0.004951689519206326,-3.35298823261887e-05,0.0014246128022568085,7.999912136584682e-05,-0.1003908972432144,0.00030280513754341504,-0.0008782643812154595,0.009961842154470978,-0.0001213455396867621,-0.004815891385984092,-7.523763958820182e-05
2.2700000000000014,0.0003246106062065185,0.0002238957237340588,-0.100019897528,-3.1846638220311974e-05,-0.0004738159123132135,0.010119452901449222,-0.0001899576973545259,-0.005046723954186927,-0.00010671735335376908,0.0014308101117057608,8.33084706468541e-05,-0.10006532805477364,0.0002072932741381234,-0.00075649073469792,0.00906164801706593,-0.0001229939715037,-0.004978969482441211,-6.519370643320651e-05
2.299999999999999,0.00032185015563616914,0.00021009089462488244,-0.09849996890625334,-4.812067017612165e-05,-0.0004505872681619394,0.010297228578451723,-0.00020641268122867376,-0.005210571341168535,-9.181483223619223e-05,0.0014348943586082184,0.00010439346967171667,-0.0998059428025704,0.00011878870958025828,0.0034658236894087105,0.008426612711191467,-0.0001575070523648118,-0.005144092641415338,-8.320781527134897e-05
2.334999999999999,0.0005645254573423547,0.0007595793243512349,-0.10066120224109909,0.0035228090459327177,0.007892749230961726,0.0015111987397844473,-0.00024012758759583974,-0.005384275381398408,-2.6525309682057248e-05,0.001438158105019571,7.127092606790101e-05,-0.0995721781393125,0.00014567149111492994,0.0002990314194841392,0.006900279463395495,-0.00013385728786801125,-0.005387534545414595,-3.5105646879789884e-05
2.369999999999999,0.0006885256798554867,0.0010393212048983701,-0.10040722956591708,0.003578252215476141,0.008092327551537437,0.0015337628706859618,-0.00021802576192486706,-0.005528143202962353,-9.736897532164332e-05,0.0014425536043929375,0.00012314095091505564,-0.09933589429785818,0.00018614884288417583,0.0005845489048367102,0.006358186654435927,-0.0001498842904688657,-0.0055617850819556815,-8.78909586374217e-05
2.4000000000000004,0.0002983871600222149,0.0009408759864003701,-0.09979372389125274,-0.003978162053215328,0.00301961789323002,-0.0003492582960138435,-0.0002362430320528297,-0.0056909448183604106,-3.637675163936649e-05,0.0014502056228646865,1.595974241370238e-05,-0.09918102542731726,0.0002709845324399704,-0.003979899550059321,0.004141610400221869,-0.00011183280098361172,-0.0057061285762753065,5.3062796977024524e-05
2.4350000000000005,0.00015741715198917816,0.0010481375448124896,-0.09965202651119398,-0.004081728089374792,0.0031095426019760453,-0.00036607895677143176,-0.00023552560717687856,-0.005829914793642033,-1.3959622124470886e-05,0.0014555283035160296,1.3725307729615703e-05,-0.09910685878153704,0.0002404164382861535,-0.002118634229330382,0.0019260246876725109,-0.0001291786924528667,-0.005897510671201756,5.4527119278912446e-05
2.4700000000000006,0.0008199887761506791,0.0011642508718795585,-0.09905107446229522,0.007482041593505073,0.0032824735238534686,-0.0010744228332910666,-0.00022521421378751677,-0.0059263859541780475,-1.5352293420534124e-05,0.0014641722133239554,3.983407980638046e-05,-0.09907095376466962,0.00022807328931616984,0.0019930180548755573,0.00022425781050213628,-0.0001622246141902375,-0.006012443525638775,1.5660930855198297e-05
2.5000000000000018,0.0010465180426067339,0.00126390356942231,-0.09954867642136378,0.007607374342569528,0.003361076332197399,-0.0011062789221440994,-0.0002577732508783903,-0.006048385204422413,1.2964726969766359e-05,0.00147081049050879,0.00013390102543731793,-0.09909017256794098,0.00022212193480778702,0.0024946621489714124,-0.0012203605614068437,-0.00018027639673699706,-0.006076401207065311,-9.823077093246312e-05
2.5349999999999984,0.0018323535541853592,0.0009956779782373092,-0.09943542964219887,0.015328536549645833,-0.002244395478172123,-0.005985007955757737,-0.00020261225613760203,-0.006153196334901079,6.314887346370313e-06,0.001481888287756305,0.00011304447752732004,-0.0991983466137802,0.00030090948563699045,-0.0012139881821548485,-0.00429665398199485,-0.0001610822482834475,-0.006127019185922327,-5.710491707943281e-05
2.5699999999999985,0.0023754862886776057,0.000916628523013897,-0.10120125904632005,0.015633505859341312,-0.0022721276966990445,-0.006130859028303348,-0.0002411169517739786,-0.006160057692112807,9.745056400145558e-05,0.0014972007733775599,1.1235672818872173e-05,-0.09938381119166556,0.00040213494962825327,-0.002343585047234741,-0.0059579572607246995,-0.000148079378252118,-0.0061499982113016145,7.211516134376257e-05
2.5999999999999996,0.002685902395136039,0.0005789326010289374,-0.09873291243729909,0.01350194074382216,-0.006237538480178273,-0.005532995598287016,-0.0002280448944564917,-0.006171718513327208,9.320910299193132e-05,0.001506874328415897,5.4885607042649045e-05,-0.09961265702637218,0.0002539358139929113,0.002310601970278852,-0.008182119873834237,-0.0001878791098244828,-0.0061723174063398134,1.1997924058333904e-05
2.635,0.0031641171927035278,0.00035864719703106,-0.09804599979497652,0.013755027623005844,-0.006350887494505741,-0.005648009513777197,-0.00022917137313838157,-0.006091819283877696,0.000150356526396056,0.0015262266151658819,4.349636800661054e-05,-0.09983537038687573,0.0005466325894306942,-0.0023372677765549294,-0.00708514676722324,-0.00016300913822853375,-0.0060449181440275675,2.8148413971826974e-05
2.67,0.003820759429366702,0.0002619815167280836,-0.10060583146241697,0.01629440438432539,-0.004730999884827725,-0.008869976459436657,-0.0002534758795875725,-0.006036950093902151,3.163185663934698e-05,0.0015468818109285465,-5.05848979935301e-05,-0.1001133110131884,0.0005201669086828992,-0.0019129653252903437,-0.00824889720891131,-0.00016129221324938094,-0.005924409092979182,0.00013539699910302766
2.700000000000001,0.004315085300298491,0.00011902323112046413,-0.10055395538711309,0.01655338725117872,-0.0047962729669279724,-0.00902436343227464,-0.00023781109968545877,-0.005959008446592585,8.589941119607758e-05,0.0015625558830603137,3.234732033683685e-05,-0.10036607082699646,0.0004592864095693556,0.004122146580426266,-0.00837787472378579,-0.00021433039150313106,-0.0058084908702753174,1.8753133646958543e-05
2.735000000000001,0.004367831380044193,0.00048266013740651086,-0.10087247935916821,0.009344847864326766,0.002625611286532603,-0.009257485075920613,-0.0002066412165802056,-0.00584564981880975,0.0001619676181552343,0.0015841235931779445,-8.134038465171004e-05,-0.10063970752268915,0.0005584724131847318,-0.002852800266874715,-0.00759476252510198,-0.00015656942183150333,-0.00563358507398427,0.00014712896043215292
2.7700000000000014,0.004699376572283184,0.0005758690524248055,-0.1001224050660312,0.009493503077464993,0.0027026992772221092,-0.009438907957530773,-0.0002380941809456693,-0.005657136876667136,9.742081423791406e-05,0.0016045200698529005,-7.06453525311861e-05,-0.10089620702976859,0.0005457807991163605,0.0005517509745993833,-0.006969034205861848,-0.00018391156186383872,-0.00545706490440297,0.00011317131076871829
2.799999999999999,0.002330282928163327,0.0006399999881795525,-0.1016959186404165,-0.028680463142109147,0.0025124095703006333,-0.00030283200753444817,-0.00025103527594527714,-0.005571006284039726,3.6112115451736315e-05,0.0016218253727693355,-6.600163367230569e-05,-0.10108743383583857,0.0005356613568905691,0.0001839601343730802,-0.006031926549813489,-0.0001746558677013659,-0.005303341032519916,9.151302571112499e-05
2.834999999999999,0.0013148275752641742,0.0007291994220098973,-0.10020973420796508,-0.029349858777095506,0.002584020900883388,-0.0002856337620915639,-0.0002336966518341477,-0.005412041522053102,-1.359752807106318e-05,0.001640636257728589,-7.975964042533998e-05,-0.10126586827047591,0.0005457234122988583,0.00021573632518024537,-0.004153527698822222,-0.0001686007419591991,-0.005138752466640457,9.149248274789549e-05
2.869999999999999,0.0018490536827116405,0.0005278157226188528,-0.1008570712015171,-0.008720561128825466,-0.0013158307978287098,-0.005548697007384362,-0.00023122767618577456,-0.005308473037888727,9.23438710165314e-05,0.0016609128853426465,-1.6934052765777707e-05,-0.10136983816554397,0.0005427603544057458,0.0007404967383232226,-0.0022740086481058334,-0.00017399164054187933,-0.0049717953939773735,4.498817902085784e-06
2.9000000000000004,0.0015855814454184686,0.00048811964629059783,-0.10106034332693525,-0.00890342028685609,-0.0013273452163602428,-0.005633779263661154,-0.00020866672047770154,-0.005194831259674793,4.458450171052064e-05,0.0016783503390769283,-8.634619512773982e-06,-0.10138731944162874,0.0005768735729302099,0.0016754868527364287,2.7204762552273007e-05,-0.00017295480785898894,-0.004820123979570417,-8.967036320606156e-06
2.9350000000000005,0.002222612522494713,-0.0006556613267617462,-0.10063883472730595,0.0038167194308300623,-0.016222690783024518,0.000732402250719133,-0.00020013182913558578,-0.005061112225209552,3.0244395825107514e-05,0.001692529006525945,-4.4501556780834924e-05,-0.10139429023541158,0.0004278894968487617,-0.0006633343676695782,0.00093691853806396,-0.00015129641945029073,-0.004747594690801009,3.1622221822537e-05
2.9700000000000006,0.0023571425308759747,-0.0012291900533524126,-0.10186709582376352,0.0038770480201719693,-0.016551048077644737,0.0007615954582540496,-0.00025474297574001875,-0.00504652934710581,6.428455877394158e-06,0.001707641598239995,2.757857618245988e-05,-0.10131806996387027,0.0004289437011669149,0.001556682575257564,0.0029877942336813844,-0.00016987432343512952,-0.004686456095076542,-5.793693629441783e-05
3.0000000000000018,0.0013698624134335508,-0.00024776847200890136,-0.10140181622682576,-0.011556320704926293,0.003994915772665308,0.008138750113687365,-0.00020224616159447703,-0.0049986115246904985,-4.7095382327722035e-05,0.0017193768712946424,2.5919481814071215e-05,-0.10118883623119165,0.0003806847718149789,0.00032878083351822664,0.004677739354663735,-0.00015921342326820218,-0.004642036230587434,-5.064369407112711e-05
3.0359999999999996,0.001577063748464863,-0.0004690748331798635,-0.10114390162553072,0.003423056265116865,-0.004806202849544219,0.0015859667290410813,-0.000248406648115207,-0.004987514588151498,-1.6622304856994674e-05,0.001727388961713849,9.109395816017791e-05,-0.10104564357539529,0.00026850246690897914,0.0016694989708346912,0.005269053897065836,-0.00016942673780031398,-0.0047155606879811405,-0.00012041591042723858
3.0699999999999985,0.0016944152271421292,-0.0006340797638427643,-0.10129060133340317,0.0034966416952499912,-0.004900334892823821,0.00162135807467223,-0.0002491125682491102,-0.00497742887911068,-9.685447650564782e-05,0.001734181122458267,6.499591798741233e-05,-0.10085342810667249,0.0001737249956846124,-0.0004036488252771558,0.005451750522982778,-0.00015152996068408685,-0.004798314630096932,-7.438706673018195e-05
3.0999999999999996,0.001800028481760349,-0.000782334939772299,-0.10080197306933769,0.0035615839013019013,-0.004983393217855792,0.0016551235090105365,-0.00022998142093344498,-0.004996460138929404,-0.00012028573479883065,0.0017376219843425744,5.9818415802321545e-06,-0.10068865748760483,0.0001597073113108988,-0.00326728978542472,0.006158304628304996,-0.0001265674959007584,-0.0049274776214304795,6.970551445327885e-06
3.135,0.0008000497141651824,0.00010789727886496674,-0.09988297241943656,-0.011610236718524902,0.009364611545208845,0.0024122097747323323,-0.0002532272355924014,-0.00508885804282455,-3.257660605582301e-05,0.0017425938985264902,0.00011679164292406076,-0.1004242749538564,0.00015922063834398077,0.0025926384776770377,0.007749813278547917,-0.00017612861100968372,-0.0050330370562888,-0.00012176894096323297
3.17,0.0003889644254045227,0.00043935562453491055,-0.10103270785475615,-0.011856905823151465,0.009573114837280627,0.002453326764452868,-0.00024057623035922401,-0.005203691248437447,-0.00010861684737983879,0.0017463327178730559,0.00011289055972072394,-0.10016934951535134,0.00010162460110525643,-0.00019530491666782117,0.006728832059499611,-0.0001626265497833423,-0.005174609244883577,-9.975842874357703e-05
3.200000000000001,0.0009395261113454428,9.593958551924568e-05,-0.10066204760005348,0.0007166460613490244,0.0008636911513164591,0.0059967321221279235,-0.00019394138774808667,-0.005309069945587109,-4.7864623158755406e-05,0.0017486671993012237,3.5716760298152054e-05,-0.09999113698482098,0.00015209885782236463,-0.0037161840496839154,0.006090925165412943,-0.00013283295644345234,-0.005344112342995787,7.259685077258063e-06
3.235000000000001,0.0007002832576504109,-0.0010269320129919646,-0.09992511248674418,-0.005371811252018688,-0.02583322277678235,0.004968456194546889,-0.00024342466451265918,-0.005453951189845261,4.2158770268141396e-05,0.0017498712738490685,0.00014126112844272954,-0.09976997156276729,5.043552578395822e-05,0.0026388587482764534,0.006055764512926883,-0.0001904945493091977,-0.005494933102126407,-0.00011479389282576078
3.2700000000000014,0.0005092742353767638,-0.0019411276531696598,-0.09880637999276587,-0.0054879615327649844,-0.026408906517303876,0.005066605736033125,-0.00023169853080684533,-0.0055983881446017856,-4.015739654628092e-05,0.0017536535266335918,8.011060815469825e-05,-0.09960830636597395,9.320548651989722e-05,-0.0011018240065132031,0.0038166410128456633,-0.0001635515806328564,-0.005668868687508984,-2.723526168796802e-05
3.299999999999999,0.0011074543408753773,-0.0023696714858386526,-0.09856439370423686,0.0115275829972461,-0.018592133792253662,0.0009376558644120792,-0.00020236770494674872,-0.005675219560338452,-2.141747374739822e-05,0.001754878589594,7.438869041249163e-05,-0.09952779087685854,0.00010710825454973683,-0.0013903542961334321,0.002381365754870597,-0.00017085116423603937,-0.005835707310993711,-1.4043731056712192e-05
3.334999999999999,0.0015152420546869355,-0.003027282996357671,-0.10027781879125541,0.011786282031039264,-0.018985789112207385,0.0009421089343177869,-0.00021761064155523258,-0.005774833816855286,-1.2168744656815276e-05,0.0017609198707302374,0.00010770766001745832,-0.09941580090092376,0.00017399289675270688,0.0009528508403984141,0.002479135230682189,-0.00019111923881289696,-0.005915891879598861,-4.9423553213152735e-05
3.369999999999999,0.0013698543662244295,-0.003018398443232472,-0.10048471052505192,7.413877988149409e-05,-0.004911654063391779,-0.001909190558748719,-0.00020053388560725688,-0.005874486426960423,1.322953882088029e-05,0.00176766934920769,4.332544264843653e-05,-0.09941322895813416,0.0001619161674969348,-0.0013022523197248597,-0.0009062269312947897,-0.00017658349258756634,-0.006038479355305731,3.362219808635144e-05
3.4000000000000004,0.0013725618132625489,-0.0031669628302223186,-0.10084941958166382,8.306003868163714e-05,-0.004991841983468248,-0.0019529145714329843,-0.0002698900940991678,-0.00593083265775407,5.325826664126511e-05,0.0017691798449073204,0.0001092808507122866,-0.09948281782726487,3.7082872651988785e-05,0.002238217525080165,-0.0027250593245995987,-0.00021228327488690787,-0.006153550248420923,-4.77894340488478e-05
3.4350000000000005,0.0017003190391946948,-0.0029599334513944354,-0.09900289392680861,0.007271207620590303,0.0033786674691214102,0.0019322139989839116,-0.00021548780195779216,-0.0059616261757065026,8.792300380200402e-06,0.0017823794481217627,3.8260199227974615e-07,-0.09955302687995811,0.0003651354757434283,-0.0033221587501772016,-0.002682426546920135,-0.0001728411472914061,-0.006162322727666475,8.845247378042804e-05
3.4700000000000006,0.0019572642595662576,-0.0028401193114587654,-0.10029378209856077,0.007435265604954111,0.003466316944084724,0.001962730335790752,-0.0002244972232730014,-0.005981858526644679,3.659245702936076e-05,0.0017917990387332778,1.6240324747622274e-05,-0.09970665149845438,0.0002692035065974835,-0.00018344479504522546,-0.004687163920358987,-0.00019981871450422306,-0.006181589565789691,6.079876130323895e-05
3.5000000000000018,0.0018933141677948545,-0.0028142619455037033,-0.09950513379044423,0.0011270829450324982,0.0017806087829086437,-0.00433107668780508,-0.00021504722669218881,-0.00594585542911874,3.5741774785602594e-05,0.0018058474770326072,-3.8200237723417306e-05,-0.09981881633193498,0.0004851388932412824,-0.0010312694816978188,-0.0034253707625463343,-0.00019087305931282542,-0.006105629491523886,0.00011830402062609947
3.5349999999999984,0.0019340784456503418,-0.002751107025546916,-0.09909590643201227,0.0011507469200040532,0.0018299149552376548,-0.004432473696084571,-0.0002791969421673813,-0.005898237594474943,9.069443359388529e-05,0.0018174997561024578,-2.9064246471339193e-06,-0.10004624792672827,0.00030298613584961204,0.002977250470491865,-0.006406997996895291,-0.0002256074008494495,-0.006070178910631561,5.6328152467026085e-05
3.5699999999999985,0.0014440347536251313,-0.0028073764792123524,-0.09874842821409402,-0.00948822028487939,-0.0005527156171680758,-0.0022898357100444855,-0.00023678728920106804,-0.00580395314093396,-2.9811646867550227e-05,0.0018316745103348344,-9.982807381450068e-06,-0.10027439647093095,0.0003745915429691309,-0.0014641585313853356,-0.0067042126540766646,-0.0001978209994239521,-0.005982785443873492,5.714537824648506e-05
3.5999999999999996,0.0011570744464038246,-0.0028240247472138703,-0.09999908716827122,-0.009669336142565044,-0.000556380432382042,-0.002338586279847732,-0.00023209262826506818,-0.005734947263805079,-4.192513407108578e-06,0.0018445040630554743,-0.00010160236800552771,-0.10047388039157915,0.00037594302695299263,-0.002671744933921247,-0.006589230740646939,-0.00017914343097936243,-0.005888500570918448,0.00015941771368148584
3.635,0.0022356563554453562,-0.002983257201323185,-0.10059861052741326,0.019258903994796128,-0.003427880700968444,-0.00690304902269645,-0.00021479911785249325,-0.0056369893782863825,5.219429535774366e-05,0.00186168288402544,-7.192857675375288e-05,-0.10067225294617604,0.0004984577488198265,0.0009597417051361648,-0.005048809860083859,-0.00020498710586748484,-0.005726642359825744,0.00010085951203105521
3.67,0.0029180831202424845,-0.0031043787830652304,-0.10065913576590901,0.01965931361996809,-0.003492345270132091,-0.007049897196793609,-0.0002363846275139636,-0.005504166019336231,7.982943350670624e-05,0.0018787561894777483,-2.567330552696397e-05,-0.10085858061883299,0.0004357089726484065,0.0009912276632851815,-0.005359672003752616,-0.00020569993978622665,-0.00557026908374114,3.027612277977214e-05
3.700000000000001,0.003531070106440423,-0.003012204328400757,-0.10052071684231123,0.020364737810041333,0.0004878624505870732,-0.003290677101830397,-0.00019644794189277448,-0.0053996225694197255,6.217620216553142e-05,0.0018918653074466718,5.8296793203192716e-05,-0.1010182929780736,0.0004039230412651064,0.003700504398562164,-0.004934047735293571,-0.00022720552320960744,-0.0054645181911716955,-7.636718490449628e-05
3.735000000000001,0.004251591847172206,-0.002994690776092811,-0.1026055858123982,0.020773171408791313,0.0005131826813027374,-0.003356597525751681,-0.00019565997339920924,-0.005268897865875033,2.7071056898364535e-05,0.0019054775204614407,-6.961315101976343e-05,-0.10116661642456967,0.0003398559610275589,-0.003112597840854908,-0.0038517014485728454,-0.0001665019755596573,-0.0053495731296297235,8.176736000263125e-05
3.7700000000000014,0.0045480378767237956,-0.003400318379875743,-0.1025685433023682,0.012676151717755602,-0.007669621670430615,-0.007618860909673231,-0.00019005926773330015,-0.005198565430402534,4.565513392496001e-05,0.0019208087250097714,-1.8636741862074727e-05,-0.10124902069910562,0.00042533902486658796,0.0008479842930729869,-0.0015750272763848249,-0.0001951852958306499,-0.005222526083758836,1.1229676328942273e-05
3.799999999999999,0.00493254182358531,-0.003632253744855306,-0.10124717905046055,0.012877042423156126,-0.0077919544474980285,-0.007739209452836349,-0.00022046321335666977,-0.0051358496234046305,8.333125524861983e-05,0.0019348696363685747,3.240162081364917e-06,-0.10124832751838404,0.00047028765043391864,0.0022223055784389564,0.0005583337540637507,-0.00019882619625442697,-0.00508885330050426,-1.9391878850615446e-05
3.834999999999999,0.005202608752391355,-0.003432331606661664,-0.10226855996688755,0.009407872559904717,0.0015733183990320754,-0.002896269387363759,-0.00021190091256206856,-0.005024799677116665,6.739808601441411e-06,0.001943904144274366,-3.488414623549724e-05,-0.10127881248245679,0.00027589463774538005,0.00015037781889185465,-9.612830141753352e-05,-0.00018165508091436768,-0.005069516697462199,2.3618045026125813e-05
3.869999999999999,0.005535094989248576,-0.003376192063428861,-0.09880776481486464,0.009562310048977452,0.0016359151441633912,-0.0029236771346887735,-0.00020573652739974696,-0.004961592659572301,-4.3938908151019987e-05,0.0019556508659324115,2.734894012326799e-05,-0.10121215444437551,0.0003464367997648908,0.001410088631003668,0.0026988024172027066,-0.00018829578945475683,-0.0050164678870927805,-5.414744670739476e-05
3.9000000000000004,0.005089161170893461,-0.0033576784554737327,-0.09986975579022328,-0.005083440922078353,0.001058670075579471,-0.00042656008057129213,-0.00019489817352313918,-0.00495857492215901,3.6588666067149944e-05,0.0019633587671323838,-4.764188689304113e-05,-0.10111612033556289,0.00019978615840421837,-0.003835016373840197,0.003145085184346168,-0.0001396304572253314,-0.004992938871372415,4.203629858320789e-05
3.9350000000000005,0.004908393446861267,-0.003319769547432615,-0.10097519716418901,-0.005250397951442665,0.0011075523443508928,-0.0004107815623370925,-0.0001564316471820426,-0.004950123939620798,-3.6398444309249094e-05,0.0019729383470745714,5.309732070789505e-05,-0.10095373210318723,0.0002983154245594777,0.0017695186734766962,0.00549542321301715,-0.0001860468520053395,-0.004986848340352957,-7.997556514780645e-05
3.9700000000000006,0.005533153366762675,-0.003762640048735265,-0.10158473735282314,0.009490309832358435,-0.007698806450719076,0.003685463663941846,-0.00016731369381073335,-0.004970969939600778,6.391971391206397e-05,0.001980342425757176,8.417431184043374e-05,-0.10074772205640223,0.00019932261386313506,0.0007963478935629786,0.005821274386568362,-0.00017496574854187474,-0.004999215291603963,-0.00010612416944670358
4.000000000000002,0.005819333456223361,-0.0039954014948489925,-0.10070641186894136,0.009624454250570125,-0.0078215841825795,0.0037750345426417198,-0.0002092559218271894,-0.005022483557923341,2.4874689332321506e-05,0.0019844107000555056,9.240935505821466e-06,-0.10058081819054891,0.00015485884241507028,-0.0038747360935205686,0.005737999839176758,-0.00013844260997004503,-0.005065915322089545,-1.7257422899523963e-06
4.034999999999998,0.00594748098094304,-0.0035782180470119596,-0.09915034239884335,0.0057007539635378635,0.0054350050347977685,0.002075497593267528,-0.0001658722561783676,-0.005075934171468787,-5.4924956983448674e-05,0.001987099217333199,8.647321330939003e-05,-0.1003815584065915,7.795820835611189e-05,0.0017239658866928013,0.005484127237634735,-0.00018330898188198243,-0.00517440488298965,-8.996308702278357e-05
4.0699999999999985,0.006147899426672196,-0.003385649124312594,-0.10081537135556573,0.005772852913366933,0.00556882052705987,0.0021388469840815105,-0.0002047314582105386,-0.005176855396590519,-0.0001204044178160224,0.0019887904329696222,9.864918921023474e-05,-0.10018746000741198,9.648611245940972e-05,-0.0010014724718409264,0.005672277251477811,-0.00016741096740376622,-0.005301257984885356,-8.87248515108526e-05
4.1,0.004795176466835513,-0.003931664601510719,-0.10096326925668109,-0.024699709077822263,-0.00862230353840232,0.004422416189640899,-0.00020571716774320234,-0.005246086009460081,-0.00011293134167811302,0.0019925289610398522,-2.6778546778932837e-05,-0.10001763093182318,0.00012181601551742021,-0.0036508186674586427,0.005362020874105198,-0.00014005902930334666,-0.005400820679537744,7.330214934953466e-05
4.135,0.003919565318049975,-0.004236456683089572,-0.10078261653097798,-0.02528783850311811,-0.00879782702418197,0.004535417128153085,-0.0002159640788992334,-0.005359412225903969,-2.6659620673274986e-05,0.0019928810651932416,4.363200684597903e-05,-0.0998853528978764,5.6074129504205285e-05,0.0014913407841546074,0.003991876510944945,-0.00018103793181142522,-0.005572541235316454,-1.779710401881369e-05
4.17,0.005421948510978367,-0.003970224544646116,-0.09959154424223016,0.018107424483105206,0.0016146843980919812,0.0023683196329500333,-0.0002187767021641918,-0.005463877952861296,-4.6302453384772235e-05,0.0019959672644107584,8.192934917005971e-05,-0.09972853772350793,0.00013037980410428204,-9.919647125159175e-06,0.004256705229009795,-0.0001802405751329098,-0.005665861023599543,-5.792862085274152e-05
4.200000000000001,0.005969313470380697,-0.003921155495875227,-0.09976116834968707,0.018410258305266325,0.001658491073392554,0.00242400281408095,-0.0001653407054789113,-0.005548765749306739,-6.700592210950873e-05,0.0020007567174396,6.277154742339947e-05,-0.09960328895299515,0.00015640277341694308,0.0007580415200182449,0.003730792179467899,-0.0001813631261227809,-0.005714416253591285,-2.828134743403109e-05
4.235000000000001,0.00641928658571804,-0.004939167563266055,-0.09970168342942998,0.015093267089014262,-0.018060678515439577,0.0028430480673904412,-0.00022056340534426513,-0.005632785691081831,-4.8524469324906505e-05,0.0020030280594136585,5.259366305332792e-05,-0.09957732520395537,7.986396833837082e-05,0.00033277054211899447,0.000544395330017254,-0.00018077008044844624,-0.005851226784883693,-1.2793793899303786e-05
4.270000000000001,0.00695172807356674,-0.005577896713604745,-0.10013704252742173,0.015367079324960287,-0.018437815647871503,0.0029181456360589664,-0.0002200453906278099,-0.005723107413519999,-4.147531180231922e-05,0.0020085849964912583,-7.810394902150051e-06,-0.09956975555484565,0.00014902797452856145,-0.0011933440032342014,-0.0004238059858952095,-0.0001642190641150781,-0.005927142608449714,5.910369161060074e-05
4.299999999999999,0.007280126334556811,-0.0057598595354034655,-0.09964847641867891,0.013062666548648849,-0.011722473155998614,0.0029151839166701166,-0.00019985852089687836,-0.005754630780749892,2.12350237585035e-05,0.0020120725095642555,7.237591672827136e-05,-0.0996082277924906,0.00011468740705467697,0.0030428820514016774,-0.0014701002092383278,-0.0002069910265079987,-0.005983954885094212,-4.393330763838514e-05
4.334999999999999,0.007740591936020322,-0.00617409034406201,-0.09962954791990342,0.013282736278370066,-0.011950648943980013,0.002986504214447905,-0.00023389696247155806,-0.005794234345349202,4.159898309330499e-05,0.0020209628540763798,-8.10278617140742e-06,-0.0996704222302661,0.0002014526423975332,-0.001308949412803382,-0.0027324670034441986,-0.00016413895927684544,-0.0059856824619776445,5.41195552936351e-05
4.369999999999999,0.007961311647271471,-0.005393674310626083,-0.09870989890441706,0.00925455181675261,0.00837154616283442,-0.0012849859604955327,-0.0002038941144224537,-0.005790953323812075,-1.5169104656820304e-05,0.002029617178642695,3.0455463090457825e-05,-0.09977335677017778,0.0002494005877851555,8.417673197844838e-06,-0.003159139331386188,-0.00018462214574338327,-0.005961616805716157,4.127979688171614e-06
4.4,0.008240791286446877,-0.00513962367148345,-0.0998042712744791,0.00936253265558662,0.008565989486498893,-0.0013080599763029,-0.0002193018418399362,-0.00581089303290039,3.080940458310977e-06,0.0020388387934477947,-7.595296878241615e-05,-0.09988416089653314,0.0002657895560812374,-0.00299940213740518,-0.00402636712790271,-0.00015516848821899015,-0.005917457676321416,0.0001306113874913043
4.4350000000000005,0.008290469309962176,-0.004965841306444717,-0.0998580430691618,0.0045060670876182485,0.006487169493567535,-0.002680959092487001,-0.0002085017041530968,-0.005778734743691949,-3.5135221123638875e-06,0.0020495283377863775,4.151812247084483e-05,-0.10004497382044664,0.0003138730303076169,0.002972530562222934,-0.004185657753563643,-0.00020385413740608223,-0.005848205361054221,-2.5330326321227957e-05
4.470000000000001,0.00844913407538432,-0.004735653236424541,-0.09988852291826333,0.004530329410329159,0.006666939560801666,-0.0027321620303126792,-0.0002038305193394763,-0.005730638181580262,0.00012092923695750103,0.0020620231754913125,3.0060182129108836e-05,-0.10020713580755417,0.00030098731107746843,-0.0006442159136105001,-0.0052636104508812735,-0.00017996450588230072,-0.00574337871249741,-9.173188841799669e-06
4.500000000000002,0.0075287705858713555,-0.0049451127963221365,-0.10025343177903778,-0.015174672042689963,-0.0008498537547545482,-0.008501317542425113,-0.00025049805734456143,-0.005668374452408641,4.827343042812516e-05,0.002070702962369886,-3.1001179339336374e-05,-0.10039340128723649,0.0002797445214340154,-0.002730253091280186,-0.00585749323226161,-0.00015788940357849024,-0.00569490839234811,6.576673523654262e-05
4.534999999999998,0.0069925286884640475,-0.004974595796853764,-0.10058666630402513,-0.015564705355473052,-0.0008311983427518044,-0.008667052611883719,-0.00020188851486269138,-0.005562604289641727,-9.428238906483697e-06,0.0020846362667137344,-4.685135373832043e-05,-0.10054574575952799,0.000337938353666037,-0.0021423538834406367,-0.00462267542497369,-0.0001592685714244212,-0.005549560258774377,7.826410861872677e-05
4.5699999999999985,0.006776645241210175,-0.006661081046460781,-0.10051957250743726,-0.010242812814112767,-0.029127064829481242,-0.007232403914002816,-0.00019370377874583508,-0.005490002247969804,8.913836636059712e-05,0.0020974443086720913,-1.3817888162622481e-05,-0.10070350944515616,0.0003351638798781964,0.0004931282739339903,-0.0042405162501733045,-0.00017939348729564873,-0.005427942728016393,2.9546644032578378e-05
4.6,0.006467286627888355,-0.007542886327223429,-0.10000158046887009,-0.01046745011854,-0.02965468540560323,-0.007342508459316832,-0.00024750977518861456,-0.005400697378518782,8.043897128251486e-05,0.0021090324648120884,2.7903741886557403e-05,-0.10081034758659203,0.00037853490063148126,0.0035144450278984246,-0.003099190759196763,-0.00020126560746244588,-0.005311418402464879,-2.6901983633398493e-05
4.635,0.0072023108964672095,-0.006425160522270589,-0.10224874797040684,0.008014210196961358,0.0063965174580289386,0.0026126537724167065,-0.0001913795761661064,-0.005298428651358655,2.6979366590129675e-05,0.0021193461203272705,-1.6511496623491935e-05,-0.10094132642234512,0.0002902433273362184,-4.7394349383906e-05,-0.0031708498229455566,-0.00016787439519461413,-0.005232179859062748,2.469619213226889e-05
4.67,0.007484853698791524,-0.006198084082613563,-0.10194805704077226,0.00815942454710239,0.006577757464782508,0.0026921218734372587,-0.0002215784827388489,-0.005190889621786709,-2.5471099543761252e-05,0.0021292230659573086,-8.037025807695658e-05,-0.10101745233007148,0.0002483899991097175,-0.0015817744707283074,-0.0019040049668187643,-0.00014858939989676687,-0.005142037708551341,9.449194361803333e-05
4.700000000000001,0.007307369502108016,-0.006657893243045764,-0.10095228373484133,0.0007588481095908151,-0.0049523179967536635,-0.0010296961243625447,-0.0002569758194188587,-0.0051229742269058845,-2.9278120010189916e-05,0.0021390026672465368,1.3024472436094182e-05,-0.10104839606338319,0.0003436457151096355,0.004227849236103909,-0.0003774094658345409,-0.00019464321858590243,-0.005072750641369552,-3.095750985430485e-05
4.735000000000001,0.007333954215049274,-0.006832228511229986,-0.10298183324539423,0.0007507552636383252,-0.0050090799168742706,-0.001030205919548166,-0.000189800388656014,-0.005051695702488423,-5.776955996017461e-05,0.0021501608796583587,2.385910186234476e-05,-0.10101057338406809,0.000285860663173718,0.0022678077599417664,0.0009130690843532971,-0.0001777315448245143,-0.0049775649095098315,-4.583638498480009e-05
4.770000000000001,0.00897387041688806,-0.0058923287506628,-0.10384339209576865,0.02785611787567177,0.013680867809625852,0.00210249087098191,-0.00018612934811423903,-0.004996443697451003,8.92209945435596e-05,0.0021569535304819536,-3.634843277100479e-05,-0.10097089898121815,0.0001677801061041034,-0.0018264087976483673,0.0013427401635922498,-0.00013678491869060654,-0.004958390753567612,2.900295050713353e-05
