t,x,y,z,vx,vy,vz,roll,pitch,yaw,gt_x,gt_y,gt_z,gt_vx,gt_vy,gt_vz,gt_roll,gt_pitch,gt_yaw
0.0,0.0,0.0,-0.10773295335911826,0.010349405469582962,0.013448455355273836,0.004669678527164933,-6.755690937287898e-05,-0.003672814618399745,-1.9449250628245096e-05,0.0,0.0,-0.10404653616567892,0.0013374469197127297,-1.493365106341394e-07,0.0116003360610779,-1.0008438263826082e-05,-0.0035805997128719354,-3.4880654006568893e-06
0.03500000000000014,-0.0014709035417581617,0.00074565011618688,-0.10663132505305839,-0.014275344336397211,0.017287804024249454,0.007362750475948587,-6.69571315428108e-05,-0.003874086262234844,-1.7259772471245327e-05,4.197933625826826e-05,-1.4891067767373535e-09,-0.1035730655821048,0.0012057348216817012,-1.8523812463983697e-07,0.014443910128708236,-9.987340662311817e-06,-0.003676110458389237,-3.4881660271501743e-06
0.07000000000000028,-0.001978164045340236,0.0013550238631978573,-0.10437375363335377,-0.014651744816546852,0.017532107025544974,0.007651138982168959,-6.946871502355735e-05,-0.004162900070395104,-1.3540583924331884e-05,7.911096483104174e-05,-3.241473017880883e-09,-0.10300430127820784,0.0010784642642038297,-2.2067314744905257e-07,0.0171931497560555,-9.96390519894688e-06,-0.0038665393259212305,-3.4879367556153005e-06
0.09999999999999964,-0.001134520210143819,0.0010707552644362295,-0.10613067010945088,0.003075688664438303,0.00637000547735056,0.015930845485740974,-6.656805270477406e-05,-0.004510212760922005,-1.2997556686045186e-05,0.00010732151633341402,-4.957403434233044e-09,-0.10244630915052011,0.0009740077236810986,-2.506245025908994e-07,0.019479938345378776,-9.941638361372821e-06,-0.004101667251555012,-3.4874986444656405e-06
0.1349999999999998,-0.0009456839788981597,0.0009622112484066747,-0.1038195962419195,0.005019888736228495,-0.0012542614303185928,0.020281057262536706,-7.407017746974275e-05,-0.004982815495220283,-1.8771579930465524e-05,0.00013554745716959292,-7.20778014309437e-09,-0.10170840705629744,0.0008613703692976586,-2.782115431572482e-07,0.021717350530174855,-9.913367684298103e-06,-0.004471041145219968,-3.486675019019118e-06
0.16999999999999993,-0.0007729630424364586,0.0009154844090062397,-0.10152733775885281,0.0050647200581579455,-0.0014188205495742068,0.020805330775374387,-6.846824161410581e-05,-0.005544370028307989,-2.308438356868336e-05,0.00015981799680098163,-9.550223998179033e-09,-0.10092455618266201,0.0007684301116734407,-2.887374898464585e-07,0.02258365971376828,-9.885870544141698e-06,-0.004922304541888253,-3.4855597989664364e-06
0.1999999999999993,-0.001827004686674627,0.0013866439410321618,-0.09977093592669917,-0.021649071916272078,0.009917955523519595,0.025224024996532535,-6.947557416925318e-05,-0.006097261807286092,-1.6399719763970925e-05,0.0001783008611715431,-1.1608023915854703e-08,-0.10025079538487097,0.0007101856535279622,-2.863897541891213e-07,0.022242010802270555,-9.862852114621166e-06,-0.005357966462750088,-3.48442980120557e-06
0.23499999999999943,-0.002599894220566057,0.001735373109113425,-0.09933316615479271,-0.02219013154649474,0.010004756930754866,0.025829673459611513,-7.312490396405025e-05,-0.006809860317876115,-2.5018491457640127e-05,0.0001980706704003405,-1.4019768580686547e-08,-0.09950992999951393,0.0006760335479455774,-2.682991652889058e-07,0.02049016421464065,-9.836574231406153e-06,-0.0059048029056775276,-3.482999623239634e-06
0.2699999999999996,-0.0018197354461335635,0.0013677085869403527,-0.09816587817977052,0.0087112180724489,-0.004311761444029116,0.017872584685733273,-6.94421406151058e-05,-0.007531837544187514,-1.8628391629249563e-05,0.00021758461510446025,-1.6371423602167006e-08,-0.09885627677791226,0.0006750268374297503,-2.368219526581855e-07,0.017583458683430662,-9.810775944062619e-06,-0.006457416159738393,-3.4816002439369247e-06
0.3000000000000007,-0.0015607845916747465,0.0012354739740203513,-0.09881498344930151,0.00883412392909122,-0.00450611555498881,0.01823423120674761,-7.148437144399723e-05,-0.008120267591937402,-1.9939162321680464e-05,0.00023506919226878864,-1.8296915465775613e-08,-0.09838650389130286,0.0006974284623576098,-2.0109365348152182e-07,0.014342946450071465,-9.788976156104762e-06,-0.006914408319801474,-3.480511423357076e-06
0.33500000000000085,-0.00022660319882561453,0.00112469124405834,-0.09748797829706746,0.030698918134476116,-0.00365486262856507,0.011158530475086081,-6.887011948464307e-05,-0.00878959504154242,-2.2753936482988738e-05,0.0002578122376386555,-2.0364186255267268e-08,-0.0979899440770077,0.0007499062466835253,-1.5037351256896336e-07,0.009786689182858405,-9.763882022897388e-06,-0.007394699448007264,-3.4795046805056972e-06
0.3699999999999992,0.0008545229993615067,0.0009931942379353131,-0.0979721483299727,0.031286982058190915,-0.0038595404221268836,0.011431611130035435,-6.930795960258254e-05,-0.009349801129325378,-2.155720235919034e-05,0.0002839370667997436,-2.2216070019759946e-08,-0.09776153992247374,0.0008220542780370894,-9.409147889728465e-08,0.0047439637786857395,-9.73903654652157e-06,-0.007797077326882477,-3.4788394195747623e-06
0.40000000000000036,0.0004983123767487996,0.001119423250656837,-0.09851034274561243,0.002993217554973171,0.0013572023351997586,-0.011013225186616182,-6.666046176073691e-05,-0.009735328961951058,-1.592759305379942e-05,0.00030944507861541126,-2.36255539423552e-08,-0.09770142366147931,0.0008950604268348948,-4.386622401561907e-08,0.0002373335869450982,-9.717873428566753e-06,-0.008068994828927693,-3.478562320719407e-06
0.4350000000000005,0.0006061677136131038,0.0011653823651158746,-0.09570416718224806,0.0029498762909270226,0.0012707724082687832,-0.011220889864432593,-7.500072654575972e-05,-0.01006568388627027,-2.853661802149076e-05,0.00034394822806649387,-2.50210028478374e-08,-0.0978160596778621,0.0009909651113933896,1.4166348370360348e-08,-0.004960836350253513,-9.693231486894254e-06,-0.008273066477762537,-3.4786675576453466e-06
0.47000000000000064,0.0008796462943791994,0.0014783963511035836,-0.09652273915344267,0.006188925735727935,0.006595000405610563,-0.0190205855219574,-6.249486602660781e-05,-0.010224640271015774,-1.5500727062356393e-05,0.000383395679888654,-2.6163735710956218e-08,-0.09810032743509964,0.001096748167911683,6.840642624412786e-08,-0.00974968769209655,-9.668551312556228e-06,-0.008357174526790457,-3.4792195470591605e-06
0.5,0.0010715500802689348,0.0016765883290190686,-0.09782375183840486,0.006212163880377375,0.0066206187291015794,-0.01934060476708055,-7.34238482378302e-05,-0.010233308785208449,-2.0698376153926997e-05,0.00042107013189429665,-2.6936792649512128e-08,-0.09845964244905876,0.0011939258992694185,1.1020030499224796e-07,-0.013335854027008265,-9.647412061008171e-06,-0.0083343207986655,-3.480054923805081e-06
0.5350000000000001,0.0001418411388840468,0.00208964673470291,-0.09963618288611542,-0.01749061084456116,0.010356663655329612,-0.02827939253381828,-6.414701917378805e-05,-0.010109135871248844,-2.0742381956928565e-05,0.00047013392537920075,-2.755311588412846e-08,-0.09900538978677136,0.0013114280317440134,1.4960692643670326e-07,-0.01657999393527136,-9.622778511415068e-06,-0.008180185787204206,-3.4815305521944346e-06
0.5700000000000003,-0.00046863098668836756,0.0024539719270251226,-0.09980434791486914,-0.017966390046467495,0.01046510407434198,-0.02882363494973106,-6.83798150253878e-05,-0.009802169636921043,-1.9467066547207417e-05,0.0005237516206624271,-2.7909599184691952e-08,-0.09963781657557857,0.0014256316518380212,1.7775880672056858e-07,-0.018748530217730822,-9.59817007933745e-06,-0.007910505012725942,-3.483460090508723e-06
0.5999999999999996,-0.00045922415620225365,0.002761780334139985,-0.09876220676551384,-0.007276951776020724,0.010405872075182288,-0.03274905568059694,-6.604170664603617e-05,-0.00942571804733783,-2.118312714838311e-05,0.000572717623528618,-2.804206478037315e-08,-0.1002199175150947,0.0015154564195060875,1.9236584634600622e-07,-0.019728583691571065,-9.577096163894862e-06,-0.007601484838135301,-3.485413565588808e-06
0.6349999999999998,-0.00070725690557083,0.003127749161194515,-0.10164480567618739,-0.007505625512749248,0.010510923230981462,-0.033376239319295564,-6.713227294641298e-05,-0.008882830711588683,-2.8842898911918265e-05,0.0006329313525197373,-2.801930440816649e-08,-0.10091179408889284,0.0016005876668777456,1.9588171317416056e-07,-0.01966282295932508,-9.552522613479124e-06,-0.007157836939031258,-3.4879939565209113e-06
0.6699999999999999,-0.00033304584576399066,0.0024710921134101227,-0.10255665515796863,0.004484908344693395,-0.009229878487417409,-0.031064458114087756,-7.051764390375581e-05,-0.008233300437360924,-2.294982386752409e-05,0.0006949377635216969,-2.7894421513930746e-08,-0.10157503093955908,0.0016584986151366213,1.8639532119621073e-07,-0.01846248173294212,-9.527942498368759e-06,-0.0066607644367458925,-3.490739215365084e-06
0.7000000000000011,-0.00019068599613092374,0.0021901854465795623,-0.10170130877531847,0.004506177041832871,-0.00949258010240328,-0.0315454242463602,-6.574797838831972e-05,-0.007643353293119495,-2.3378120508787965e-05,0.0007485798702440181,-2.7758612934305047e-08,-0.10209674157630903,0.0016832889183498712,1.6894234967632598e-07,-0.01663136148257457,-9.506860005476435e-06,-0.006213686277105293,-3.4931279989689864e-06
0.7349999999999994,-0.0006173045035211544,0.002341121398785617,-0.10370026989858161,-0.007297970713295854,-3.556387057357391e-05,-0.028789450246108572,-6.634814455086514e-05,-0.006950436818825346,-1.844162639041969e-05,0.0008104468890810497,-2.7634005958954735e-08,-0.10260833191878424,0.0016750052981112779,1.3756912227474384e-07,-0.013554797451972692,-9.482248398730236e-06,-0.005694650693166378,-3.4958278303854385e-06
0.7699999999999996,-0.0008699546774550981,0.0023380978527711704,-0.10416900339532731,-0.007525784582469441,-0.00013356817470011606,-0.029284525302273323,-6.454021313295753e-05,-0.006260744842171206,-1.590143174512448e-05,0.000870268148467801,-2.759938384867174e-08,-0.10299752939359266,0.0016302026605792687,9.858001769963567e-08,-0.009786907924755011,-9.457796006153081e-06,-0.005207960358619075,-3.4983199937520556e-06
0.8000000000000007,-0.0008175376183316985,0.002551740790295298,-0.10437255884244223,-0.002110395759473249,0.00418308848671245,-0.01634197544512972,-6.352700348166708e-05,-0.005730331618269525,-1.934213036891563e-05,0.0009192399249897676,-2.762481019891262e-08,-0.10322966750915559,0.0015670744147206009,6.536485388519498e-08,-0.006474277304802559,-9.437991043446714e-06,-0.004831779704652679,-3.5002282548394966e-06
0.8350000000000009,-0.0008900968618945626,0.0026980693648965826,-0.10430032495605701,-0.0022163877035836776,0.004180635133167243,-0.016553714950077847,-6.635303502866563e-05,-0.005167606753759823,-1.6452750412732083e-05,0.0009725265029989507,-2.774069212147107e-08,-0.1033708387058765,0.0014709295357793952,2.8018666262107877e-08,-0.0028877298367306174,-9.416980601237728e-06,-0.004464398736632206,-3.502076164287409e-06
0.8699999999999992,-0.0004068338880642841,0.0026489180379485333,-0.10387788027082934,0.007974189551646305,0.0005939161794152881,-0.010150407897185687,-7.263514043964749e-05,-0.004685727857085098,-2.2352221314747567e-05,0.0010216508766576191,-2.7979703287753495e-08,-0.1033935738036516,0.0013621394118247807,-8.253721267482645e-09,0.0005123259143145489,-9.397346203348224e-06,-0.004175849715218393,-3.5035419699402456e-06
0.9000000000000004,-0.00016471303160869866,0.0026656751119844557,-0.1050748788979945,0.0080747736902822,0.0005251670001200637,-0.010214672539405,-7.215445001618191e-05,-0.004358606143710642,-2.002599935879701e-05,0.001060437869466746,-2.829403726824049e-08,-0.10332636446298732,0.001263116150829257,-3.874400308272517e-08,0.0033189084454130157,-9.381095713834589e-06,-0.003991971626261081,-3.5045193992295847e-06
0.9350000000000005,0.0003791031181208382,0.0027048097479109856,-0.10418833830681251,0.012927264954328166,0.0008528330827424213,-0.010093430959670968,-7.125086423309668e-05,-0.004053277791302268,-2.1846352611820656e-05,0.001101077822065034,-2.8831562370729637e-08,-0.1031355522959442,0.0011429283144252112,-7.369704806769738e-08,0.006464294281758533,-9.362231335884728e-06,-0.00386641908405967,-3.505300623075241e-06
0.9700000000000006,0.0008368092653654458,0.0027333730376994936,-0.10557904076995328,0.01314736798872218,0.0007814770126444159,-0.010165753444539405,-7.322469650095087e-05,-0.0038424185994774263,-2.1772158973920597e-05,0.0011371515768909823,-2.9561360513094143e-08,-0.10283966905833793,0.0010205781695878634,-1.0819914800890193e-07,0.00949114902030623,-9.342782794860004e-06,-0.0038299259124750574,-3.505743920001436e-06
1.0,0.00029047721091046697,0.0020922924409205734,-0.104978234335249,-0.004911659661786416,-0.01211401887150032,-0.002849098572596631,-6.579635516734683e-05,-0.0037356220602302592,-2.088034802261163e-05,0.0011645678768426038,-3.035048050807831e-08,-0.102508676243651,0.0009153763393100865,-1.3734387698256281e-07,0.011997702121793713,-9.325173956011325e-06,-0.003867697293258947,-3.5058779461087497e-06
1.0350000000000001,0.00011625969500528299,0.0016624635168227542,-0.10367256873041697,-0.005064123092097361,-0.012447444806127805,-0.002767550984543732,-7.844955840186074e-05,-0.0037091039869054927,-2.5208918922992037e-05,0.0011918375058832527,-3.150501386310198e-08,-0.10202232466374675,0.0007947603775302755,-1.6991726283021124e-07,0.014781904519812662,-9.302862401601476e-06,-0.004005962881001223,-3.50572018557864e-06
1.0700000000000003,3.929168087779544e-05,0.0025856273668978247,-0.10344032879538645,-0.0033288294072519875,0.012167320494313572,0.0014602190725270248,-6.690863871350318e-05,-0.003773326917208664,-2.061740113745714e-05,0.0012147042613750436,-3.281947284760585e-08,-0.10145480812711821,0.000682002942824507,-1.9308021723360022e-07,0.01685422945317216,-9.280149708021663e-06,-0.004233556765904661,-3.505261744459569e-06
1.0999999999999996,-6.217766804184066e-05,0.0029532702685628465,-0.10326629133351162,-0.003424698152826977,0.012341830572552226,0.0016020230557813875,-6.389522981731233e-05,-0.003910794442152366,-1.7515459907357925e-05,0.0012313010213471642,-3.402824368455337e-08,-0.1009295551473456,0.0005977765382365788,-2.0434193182768225e-07,0.01781772372379219,-9.26104600810932e-06,-0.004490351936217733,-3.5046548892473423e-06
1.1349999999999998,-0.0004768489748130378,0.002379495804234466,-0.10393406781349768,-0.008879321179620092,-0.006000357485106633,0.012024116076020164,-6.798234379878919e-05,-0.004152016639646926,-1.8715945456548866e-05,0.0012474678751199782,-3.5518281649860156e-08,-0.10030248126722774,0.0005238548882002014,-2.0639549931728915e-07,0.017830293635574507,-9.239328391674872e-06,-0.004856550109362417,-3.5037163794682316e-06
1.17,-0.0007934448831292684,0.002166046240972719,-0.10241528002734412,-0.00910695614618362,-0.006198818977054543,0.012416552671027148,-7.634748214346843e-05,-0.004489107311603124,-1.5606858273731206e-05,0.0012616137567906804,-3.7046898117731546e-08,-0.09969913841088535,0.0004775359828266444,-1.973782302500078e-07,0.016805309523035668,-9.21796876355269e-06,-0.005265483659634891,-3.5026478431267023e-06
1.1999999999999993,0.00031180532459984533,0.0023932118533593894,-0.10187387702171691,0.016650033407358933,0.0014227852433847943,0.019193478615420645,-6.966738786795547e-05,-0.0048543930258806425,-1.6961031238160725e-05,0.001272976292368,-3.8351966536254396e-08,-0.09922281949391153,0.00045961649390851845,-1.8171500881831852e-07,0.01519669012518866,-9.19990188761821e-06,-0.005632310119533303,-3.5017011929735894e-06
1.2349999999999994,0.0008967269213826512,0.0024424587579687795,-0.10124499304947676,0.01697170509442003,0.0013892582252381658,0.01970725557168862,-6.727595162869804e-05,-0.005346076357330532,-2.095400748025611e-05,0.0012864058116037742,-3.981533900320286e-08,-0.09875302767915618,0.00046672543395313094,-1.5409192511069868e-07,0.012467895280142293,-9.179102142723495e-06,-0.006056379149919918,-3.5006579999408046e-06
1.2699999999999996,0.0009480081766923831,0.0027001796497643227,-0.09971599529626474,0.007517034891350249,0.005112734880810876,0.015915847986207154,-6.446216298261477e-05,-0.0058823411007846715,-1.8696301272491667e-05,0.0013011410011491975,-4.117452928087952e-08,-0.09839245267459429,0.0004977548207432258,-1.192389871785965e-07,0.009082063653427074,-9.158523612371063e-06,-0.006451314556088993,-3.4997668003350106e-06
1.3000000000000007,0.0011720633710865513,0.0028541772931021114,-0.10067111983744326,0.007616155928133139,0.005151853010801233,0.0162774515001729,-6.672336721358362e-05,-0.006347176130434118,-1.5569570092299756e-05,0.0013154098122711844,-4.2236028047041276e-08,-0.09817920274784696,0.0005397436706322162,-8.527195452401871e-08,0.005808994684522555,-9.141028535975569e-06,-0.006752795434021354,-3.499167061155443e-06
1.3350000000000009,0.0009779063457244774,0.003014221958892449,-0.10041426743009652,-0.0007213728809034592,0.0048115450840953145,0.007035996331836714,-7.115123539103152e-05,-0.006891535434023323,-1.9361460961597746e-05,0.001335059610723777,-4.33121596249348e-08,-0.09807195662360575,0.0006047616860785328,-4.268023378348669e-08,0.0017086252437930123,-9.120760608752652e-06,-0.007035616202412023,-3.498738550448074e-06
1.3699999999999992,0.0009497456976532703,0.003183300005048295,-0.09995315656442472,-0.0007861088187297582,0.004848945577521135,0.007260043319746501,-6.47774646385102e-05,-0.00740787698985379,-2.4683340227760198e-05,0.0013581925984467163,-4.421746179053764e-08,-0.09810679340339884,0.000680748463962696,4.5986621895380564e-10,-0.0024294672837188343,-9.100544427047822e-06,-0.00723719678996411,-3.49860930202213e-06
1.4000000000000004,0.0007871650946071895,0.0037312565743832238,-0.09866076676826196,-0.0034555700415523916,0.012403702382300708,-0.0022400103098760837,-6.705688441854818e-05,-0.0077814435317766755,-1.5379809370497096e-05,0.0013809095902042046,-4.485814731077543e-08,-0.09824246341299885,0.0007526196778686894,3.6202750223837936e-08,-0.0058349534762370744,-9.083224004810038e-06,-0.007341708567205705,-3.498741114815887e-06
1.4350000000000005,0.000664748081817379,0.0041688179958327964,-0.10143837697569325,-0.00357559875789093,0.012600002129090626,-0.002222508860910466,-8.065617838060035e-05,-0.008130803243571627,-2.3302391766399928e-05,0.0014115096629505617,-4.541560927034879e-08,-0.09853117131173225,0.000843729488782922,7.393526812889183e-08,-0.009360382368352833,-9.062986696313419e-06,-0.0073654630138322505,-3.499241098146582e-06
1.4700000000000006,-0.0005784307718386117,0.004603274108376354,-0.0981844190200718,-0.022838774771116732,0.012626471681642215,-0.014921375234791867,-7.246720060161138e-05,-0.008360868199715377,-2.111233840063065e-05,0.0014460969993090877,-4.577689683654286e-08,-0.09892617690170598,0.0009383467674638909,1.0592018574332621e-07,-0.012235022526699302,-9.042823751326698e-06,-0.007292268314826003,-3.500089922218871e-06
1.5,-0.001266756756194809,0.004984525649888383,-0.09972625510317812,-0.023304817301323055,0.012791506294888677,-0.015140560904455924,-6.73126734502816e-05,-0.008469185509080377,-1.2781894097813055e-05,0.0014786380312106218,-4.594125047987644e-08,-0.09932867792979126,0.001018642363981797,1.275314070685977e-07,-0.014101890314749404,-9.025587493529305e-06,-0.007158166168569595,-3.501076865316804e-06
1.5350000000000001,0.00029181413674450596,0.004336118267474376,-0.09766043388208345,0.01627539595642702,-0.005583515604371314,-0.023730801562805937,-6.497280333084279e-05,-0.008495555889360682,-1.4701465734567877e-05,0.0015200546001050692,-4.595848781660235e-08,-0.09985457129726677,0.001104989964305359,1.436772143216222e-07,-0.01537350269103453,-9.00554127197648e-06,-0.006914906512812587,-3.502538052828469e-06
1.5700000000000003,0.0008742296695345431,0.004136946683502174,-0.10104580631241333,0.016602185146211923,-0.005793837754396236,-0.024170300499235964,-6.947730597728352e-05,-0.00837168632139118,-1.7534734941371255e-05,0.0015641367769809733,-4.584114006803776e-08,-0.10040269200220012,0.0011775997191167792,1.502563166543664e-07,-0.01571836316221762,-8.985560671727978e-06,-0.006602344226651704,-3.504234552664845e-06
1.5999999999999996,-0.00028198229665576946,0.004136575136499232,-0.10007277774593604,-0.012561929447770126,-0.002861274039233308,-0.02965152818876504,-6.623778755443509e-05,-0.008172135487946708,-1.7231272681605958e-05,0.0016033867052858142,-4.566729512767422e-08,-0.10086812169663457,0.0012253486745129262,1.4849159596980044e-07,-0.01531173018618342,-8.968483158067204e-06,-0.0062941833214970235,-3.505813499679542e-06
1.6349999999999998,-0.0007181236996984808,0.004033808541635153,-0.10015973278177626,-0.012842218248238169,-0.0030074007898832633,-0.030175352836636193,-6.638687223370354e-05,-0.007843873371602418,-1.9167118001650607e-05,0.0016501613216282063,-4.5416127359850836e-08,-0.10137386265507622,0.0012564614388333427,1.3683019347606388e-07,-0.01394267536177819,-8.948622063522199e-06,-0.005902475406788827,-3.507729956172718e-06
1.67,-0.0002202836271862907,0.004086954842932755,-0.10154406380024739,0.0027093434650851123,-0.0004552865777132098,-0.028601992568155765,-6.191838648517134e-05,-0.0074291022770860415,-1.813427544394841e-05,0.0016968151037901613,-4.516994349537926e-08,-0.10181453325205883,0.001260369171556569,1.167801620460788e-07,-0.011801422307512018,-8.928824915992736e-06,-0.005503361547713192,-3.5096208827803846e-06
1.700000000000001,-0.00013201474621382658,0.004072093403692634,-0.10162697301620938,0.0027569977652035504,-0.0005314682631869516,-0.02901544756889507,-6.915197047030476e-05,-0.007014337286586513,-2.069343346944308e-05,0.0017360153711498704,-4.4993943906353455e-08,-0.1021265625102634,0.001242236343894093,9.411460159384514e-08,-0.00946438233695841,-8.911913916393478e-06,-0.005171008778110568,-3.5111623792060526e-06
1.7349999999999994,-0.0005269680732453708,0.005145977116171707,-0.10336237670981063,-0.005597252668735564,0.01780767641184866,-0.029207222332615856,-6.840584596368159e-05,-0.006498126234408818,-1.5812655950409038e-05,0.0017796899587640958,-4.487669287368908e-08,-0.1023823620217378,0.0011932404522014036,6.194340818759356e-08,-0.006222925823575466,-8.892275796433286e-06,-0.004818288720111018,-3.5127743905970076e-06
1.7699999999999996,-0.0007185929716797546,0.005774577991360275,-0.10359902930395037,-0.0057230890941468715,0.018116412530730486,-0.02967708728181151,-6.603913676750396e-05,-0.005968741041587401,-2.3800279399299746e-05,0.00182049620728586,-4.487534699891e-08,-0.10251943270645897,0.0011207268020056993,2.666655910096641e-08,-0.0026798024479472897,-8.87279666607037e-06,-0.004518666491445094,-3.514138748604021e-06
1.8000000000000007,0.0005431471663541743,0.00533508052308207,-0.10193196100590285,0.01832411454188332,0.0017503561829173009,-0.018314397568246932,-7.092960552235185e-05,-0.005550755681218433,-2.3699759657436203e-05,0.0018528579011345414,-4.495506634614885e-08,-0.1025437125701117,0.0010445343247847021,-3.0978111615552475e-09,0.0003556837858895554,-8.85663848740471e-06,-0.004311771028381741,-3.5150932821147717e-06
1.8350000000000009,0.0011949823865506914,0.005395312524797191,-0.10353974066356386,0.018727150592667385,0.0016949132498140784,-0.01854603517688247,-7.761584879872886e-05,-0.005085636674285965,-1.8723977440515682e-05,0.0018866803324624213,-4.516601628048343e-08,-0.10245167189778116,0.0009437211373496324,-3.6804616435225315e-08,0.003705158898102221,-8.838467347467143e-06,-0.004146851051043141,-3.51590253353331e-06
1.8699999999999992,0.0008258662001026096,0.006503271859173765,-0.1037593520086375,0.002340159631955885,0.01869725804886002,-0.012374694413381349,-7.588100989730506e-05,-0.0046889412140105335,-2.4088645716346946e-05,0.0019164267971900622,-4.552564594956425e-08,-0.1022486148703999,0.0008357289809858325,-6.990347650750337e-08,0.006892110218925787,-8.820268721424094e-06,-0.004062282488582769,-3.516413359590468e-06
1.9000000000000004,0.0008985223385025165,0.00706796260919873,-0.10453767898661681,0.002389347937878483,0.018950745116967482,-0.012461938094020297,-6.771372804026399e-05,-0.004416722199592104,-1.641978342625805e-05,0.0019387203447678303,-4.59550624454109e-08,-0.10199448669219398,0.0007401478270582087,-9.630411892437988e-08,0.009432849103834127,-8.804493170103444e-06,-0.004053658082750926,-3.5166225436811306e-06
1.9350000000000005,0.00011108702983619878,0.007057027731434573,-0.10522662602261335,-0.012181082805909682,0.007864299974983169,-0.008717047512959653,-7.745893443145134e-05,-0.004172457781443483,-1.7749186147941742e-05,0.001960440001429698,-4.659562897666289e-08,-0.10160685460256595,0.000630557796655843,-1.2098486801369032e-07,0.011782450098243673,-8.786242563899036e-06,-0.004130101609509605,-3.516566019825445e-06
1.9700000000000006,-0.00031834211586101446,0.0073332674678567855,-0.10516123059096572,-0.012430042919163498,0.00792164500404624,-0.008735920247374906,-6.651481130770517e-05,-0.004027456915411508,-1.4597225266754775e-05,0.0019782904276484103,-4.7354221166787216e-08,-0.10115563433264099,0.0005305254807079062,-1.3852873039279417e-07,0.013387661077610188,-8.768246972417467e-06,-0.004285457284729422,-3.5162410777333774e-06
2.0,-0.0005689956715286826,0.007166980823285485,-0.1045741282682684,-0.010521313290496437,0.0011546070318431134,-0.0008785653865857057,-7.364796698672293e-05,-0.003972089150102943,-1.823568304759604e-05,0.0019909939629911833,-4.808051132649006e-08,-0.10073852612384263,0.00045636594944888705,-1.4750460800812189e-07,0.014150933931239442,-8.753037111406351e-06,-0.004472105635344943,-3.5157832401828546e-06
2.035,-0.0009406803064848646,0.0072058317045957665,-0.10243270633782231,-0.010724561216420625,0.001065138721394021,-0.0007342242299159807,-7.717494412107229e-05,-0.003986398984996865,-2.3428913619394365e-05,0.00200304731188905,-4.899973528124332e-08,-0.10023983854863532,0.00039042001432207916,-1.4965548985343456e-07,0.014191993857213052,-8.735662545670118e-06,-0.004747501188993402,-3.5150616059539276e-06
2.0700000000000003,-0.0012371426328172674,0.006505984604245896,-0.10208548640503068,-0.009589514869844606,-0.010662661679532448,0.009641956780171768,-7.302316917723316e-05,-0.004093483485923865,-2.177563973182472e-05,0.002013299542850344,-4.9957498098875726e-08,-0.09975853108820554,0.0003471181601840407,-1.4363456919227796e-07,0.013424915642927774,-8.718511143740944e-06,-0.0050608281159104755,-3.5142314645315284e-06
2.0999999999999996,-0.0015283044699572201,0.006181796351711455,-0.10336191375063208,-0.009739346406831828,-0.010951742195459246,0.00994112679114778,-6.439931781354602e-05,-0.004254134658939535,-2.0258206351986278e-05,0.0020213403240845196,-5.0781644260883835e-08,-0.09937709037885353,0.00032782489249039403,-1.3253825359563593e-07,0.012191763613788313,-8.7039603905699e-06,-0.00534523187518275,-3.513488924512793e-06
2.135,-0.0002851975477824453,0.0067238067824746395,-0.1009842571424997,0.015066450786889618,0.0033599044236183317,0.0078483924121997,-7.010357014447521e-05,-0.004530474430828769,-1.6416004146257997e-05,0.0020306785525006084,-5.170845663538183e-08,-0.09899852877356716,0.0003284954850268428,-1.1253136783306034e-07,0.010073710350086886,-8.687158019432266e-06,-0.005677724728370457,-3.51265784535361e-06
2.17,0.0002472951027812087,0.006841105326657271,-0.09934522055755224,0.015436842085364333,0.0033423043041977962,0.008163108958740395,-6.201129026184303e-05,-0.004878055062953912,-2.045662531502401e-05,0.0020408946208387846,-5.2566369069555074e-08,-0.09870518969758754,0.0003493919437225796,-8.698520208730231e-08,0.007426315106432144,-8.670497232082152e-06,-0.005990613816646538,-3.5119307414764385e-06
2.1999999999999993,-0.0008250268824667728,0.006560407531424062,-0.09969585964017824,-0.008232905406998725,-0.002609357582400662,0.009742641500508853,-6.394676134835463e-05,-0.005220566791883651,-1.9022619772712804e-05,0.0020508483573493663,-5.323090951714948e-08,-0.09852889887023465,0.0003806665148117202,-6.196489170636395e-08,0.004855420336277231,-8.656323856411525e-06,-0.006231893652412489,-3.511422424097718e-06
2.2349999999999994,-0.001117635297759989,0.0064665578054246,-0.09861989372438984,-0.008380573333965913,-0.002755165155392092,0.010078087710610362,-6.630587021128066e-05,-0.0056435606065412544,-1.9982296044940288e-05,0.002064737568621577,-5.389276397580167e-08,-0.09843473685452071,0.00043139836637164547,-3.0298560234951565e-08,0.0016204817521978296,-8.639860364142412e-06,-0.006461592809830585,-3.5110269817670593e-06
2.2699999999999996,-0.0003833162409137003,0.006489400119562561,-0.09863238028310661,0.006999425970718676,-0.0010651210659347043,0.004806763809796166,-6.379799513833716e-05,-0.006064070688839961,-2.0420511602559085e-05,0.0020813267263841695,-5.443099568806588e-08,-0.09845294578599853,0.0004922094758492634,1.961896404763382e-09,-0.001656314578721146,-8.623434862497495e-06,-0.006629005958558419,-3.510854139132505e-06
2.3000000000000007,-0.00017211149770446355,0.006456055289845608,-0.09846097759236727,0.007142217379396243,-0.0011582499156688186,0.004997788167543149,-6.772794972187413e-05,-0.006419188985342661,-2.273231441529688e-05,0.002097811460683552,-5.4793760099933804e-08,-0.09855257037357433,0.0005502550307663043,2.88191546516917e-08,-0.004365506870895261,-8.609368950174716e-06,-0.006719626844645276,-3.5108870632177077e-06
2.335000000000001,-0.0003706603620230453,0.007926621098704345,-0.09876061810018655,0.0002685469023049336,0.022152014727225833,-0.007620399570583913,-6.467192042425295e-05,-0.006787018154420287,-1.9576668815801664e-05,0.002120278886106997,-5.5079165511668314e-08,-0.098773060579595,0.0006237847883259367,5.731849557289219e-08,-0.0071924264907163235,-8.592951420301585e-06,-0.006748864700726825,-3.51118255913779e-06
2.369999999999999,-0.0003591077602322912,0.008708786104307364,-0.09700056296424009,0.00028466128171800165,0.022544232451309654,-0.0076522978309299106,-6.865472985584374e-05,-0.00709412209050919,-2.03070776891856e-05,0.0021459080600827454,-5.5227483640534706e-08,-0.09907941577739424,0.0006997402910859252,8.15619848495415e-08,-0.009524385797003683,-8.57654629730902e-06,-0.006702323173563806,-3.5117322169739085e-06
2.4000000000000004,-0.00012598812236319645,0.007321609533164519,-0.09912518297142014,0.0037429713306948997,-0.009279506387940728,-0.01078096379666249,-6.594542856674934e-05,-0.007297201928602615,-1.5771714125811804e-05,0.002170180084241302,-5.524898950091851e-08,-0.0993942892909711,0.0007639104132949749,9.824430105410032e-08,-0.011060846135280366,-8.562571850360471e-06,-0.006606443496066415,-3.512392522749495e-06
2.4350000000000005,9.381330983160296e-06,0.006991541876004703,-0.10002999277230629,0.003833151781094557,-0.009579934575469906,-0.010896322504606815,-6.415279366045469e-05,-0.0074452852842967765,-2.5533929240317832e-05,0.002201261437307701,-5.514801810595079e-08,-0.0998088384003643,0.0008326155052348367,1.1094087062227169e-07,-0.012144546248328471,-8.546349595657848e-06,-0.0064260603918148956,-3.513391256515818e-06
2.4700000000000006,-0.0009567780575707729,0.007114603188028923,-0.0983406327427474,-0.012100444522275211,-0.003170498382260689,-0.016453144898036953,-6.566246649608588e-05,-0.007501926816328553,-1.8582395518329523e-05,0.0022344996874972267,-5.494956398938356e-08,-0.10024368203362005,0.0008903273894570032,1.1652068713525368e-07,-0.012496364919740235,-8.5302095432522e-06,-0.0061904311377776145,-3.5145647316609985e-06
2.5,-0.001319328615863924,0.007017455303639508,-0.09961223835580313,-0.012318340773845193,-0.0033044027821631516,-0.016651175118227002,-6.276873893273914e-05,-0.0074659600804296575,-1.7446596179304666e-05,0.002264196732763679,-5.472568012238447e-08,-0.10061494377929768,0.000928429606094016,1.1576490959180992e-07,-0.012239189584819355,-8.516441756047857e-06,-0.005955901554670283,-3.515664832817705e-06
2.535,-0.0011868347482959507,0.0071420796723487,-0.0999306358744434,-0.004304937139352205,0.00011153224811177864,-0.019524078691233626,-7.107016014051838e-05,-0.007349706042055981,-1.5391851917012644e-05,0.0022997029177924673,-5.442738214247052e-08,-0.1010210512886211,0.0009538311492475268,1.0765177717799245e-07,-0.011221962539162673,-8.500473060778806e-06,-0.00565526904656099,-3.517008252713663e-06
2.5700000000000003,-0.0013338782177925168,0.007144529546167178,-0.09971289648274251,-0.004383476325983793,3.117554632181552e-05,-0.019798137331463295,-6.773429787942928e-05,-0.007134365800431473,-2.0929542247749563e-05,0.002335208159955471,-5.412990140451523e-08,-0.10137765020991714,0.0009582884013725381,9.317036460386448e-08,-0.009581250038272496,-8.484601471288698e-06,-0.005346799018374515,-3.5183395099441088e-06
2.5999999999999996,-0.0016495701806888974,0.007835397525695953,-0.09874374029595856,-0.0073433236500477506,0.010485280296336441,-0.026327655414888795,-6.922615010429566e-05,-0.006880848755937752,-2.5499542676499225e-05,0.0023650960396865983,-5.38980366183224e-08,-0.10163252529044622,0.0009455839678306473,7.65616867662621e-08,-0.0077673091167323365,-8.471078424581613e-06,-0.005088408346843502,-3.5194276854174717e-06
2.635,-0.0019027278513021884,0.00820468589495249,-0.09928615997841916,-0.007481026657842449,0.01062009265206143,-0.02672849927785137,-7.353265976961508e-05,-0.006531688313340834,-2.5592939340235425e-05,0.0023984458783790066,-5.369202134566732e-08,-0.10184536871348479,0.000909260672566449,5.266392686840053e-08,-0.0052298175741416035,-8.455371999663347e-06,-0.004812323650225602,-3.5205647493675515e-06
2.67,-0.0017513819266241626,0.009587785992380304,-0.10413989845937976,-0.0017055159179903967,0.02532842805283053,-0.02741061618121421,-6.377855439776427e-05,-0.006143489394482948,-2.0408898219859143e-05,0.0024296274236657034,-5.3568446920527717e-08,-0.10196476837218527,0.0008545720637030701,2.620186201608066e-08,-0.002430119048226002,-8.43983217104994e-06,-0.004576148680943285,-3.521524087048144e-06
2.700000000000001,-0.0017977093366425834,0.010353319662954164,-0.1029014013424785,-0.0017152854156847752,0.025710662605661128,-0.027750844380420858,-6.582774073304878e-05,-0.005798831231620394,-1.5452931457993205e-05,0.0024543411585815646,-5.3532548511437655e-08,-0.10199191565701057,0.000796174418033617,2.515608852935715e-09,6.515201153553296e-05,-8.426674686622262e-06,-0.00441211190686338,-3.522192669741348e-06
2.7349999999999994,-0.0018817873456100642,0.009716872823219092,-0.10233429848767628,-0.0021022370193577444,0.0034912995427021087,-0.01721094496110709,-7.351703925362331e-05,-0.005405623158716733,-1.3305652555306581e-05,0.0024800591500364617,-5.359157304770485e-08,-0.10192149529852881,0.0007168541048541051,-2.4848382234803027e-08,0.0029345174738151306,-8.41155787656164e-06,-0.004281525621488476,-3.5227492636845143e-06
2.7699999999999996,-0.0019525195152709784,0.009838521118354038,-0.10271306756385457,-0.0021215812829780134,0.0034623291889630536,-0.01739690857948517,-5.9017614807199706e-05,-0.00504361966393807,-2.0812460016728096e-05,0.0025024990402680025,-5.375228710003353e-08,-0.10175738396265344,0.0006307911530824433,-5.03707949811321e-08,0.005581698063563121,-8.396690258705133e-06,-0.004215972355407419,-3.52307809387721e-06
2.8000000000000007,-0.0007065077165862022,0.009999653933846275,-0.10214087901977109,0.017001803968469176,0.004280332716689372,-0.01009594420185067,-7.044458981875222e-05,-0.004765817515719918,-2.172493146801457e-05,0.002519172027695582,-5.3968771115331836e-08,-0.10155258354501645,0.0005549763144661906,-6.990161893687255e-08,0.007575052503010636,-8.384143867496109e-06,-0.004211168147732767,-3.5231831196676494e-06
2.835000000000001,-0.00010268111282130121,0.01014925042500181,-0.10235329016177275,0.017408695794529194,0.004270132643966917,-0.010122333583012733,-6.581114492121289e-05,-0.004510352271908324,-2.3126459185007775e-05,0.0025352423437536857,-5.432611142368535e-08,-0.10124287337316845,0.00046904660554141994,-8.833028505113032e-08,0.009396543304921458,-8.369739846536151e-06,-0.004274166499042255,-3.523073282526682e-06
2.869999999999999,0.00026388074411443085,0.0104133401339368,-0.10266915910597163,0.014418533546631807,0.005816302388524264,-0.007467039630512318,-6.283257660655296e-05,-0.004319570145893792,-1.746357186638292e-05,0.0025482895382209487,-5.477570061145294e-08,-0.1008840813655344,0.00039088881734567675,-1.0130427358334757e-07,0.010631379182557504,-8.355464162918805e-06,-0.004399143272508315,-3.5227642546835383e-06
2.9000000000000004,0.0007016963290880085,0.01058809863411625,-0.10194863819879174,0.014705431188531293,0.005835918599217393,-0.007433782988329085,-6.22525430866716e-05,-0.004215546196364884,-2.143831980339073e-05,0.0025574551214679886,-5.521676049990957e-08,-0.10055342061705144,0.0003330347947216847,-1.0780467167976736e-07,0.01120690442323266,-8.343388319232738e-06,-0.004548001619163547,-3.5223696782815557e-06
2.9350000000000005,-0.0010921560783572204,0.010743949248990248,-0.10174463858675153,-0.017444014835746202,0.005172647774031702,0.0007764690781648653,-7.0799513340436e-05,-0.004184077594990843,-2.248732073040216e-05,0.0025660093021548924,-5.5784967437304336e-08,-0.10015927363145273,0.00028145893684426704,-1.091670083460892e-07,0.011206171166607309,-8.329528344658635e-06,-0.004766354164180701,-3.5217763955931165e-06
2.9700000000000006,-0.0017085611625589081,0.010925163669980975,-0.10231619801243141,-0.017772325479654683,0.005181530022440484,0.0009670241599408769,-7.065672372696953e-05,-0.00422983762159035,-2.216640137930881e-05,0.0025731801571353685,-5.638082510949389e-08,-0.0997800060573507,0.0002474526858572524,-1.0435361520004185e-07,0.010566541647328658,-8.315816692027327e-06,-0.00501387737024964,-3.521108305742719e-06
3.0,-0.002139683523637359,0.01191783045169359,-0.10221320995378846,-0.016541673548545077,0.017240136522559624,-0.004145170585275082,-6.564986890111868e-05,-0.004338265349875581,-2.0890011424690155e-05,0.0025787603485367683,-5.689379185616636e-08,-0.09948037578854949,0.00023220178777680432,-9.5780331400134e-08,0.009563538227490353,-8.304162043954014e-06,-0.005238035256147619,-3.5205162472657796e-06
3.035,-0.002723177069583471,0.012525838225201369,-0.10328349787778279,-0.016838126711490986,0.01750306576548155,-0.004068488887270405,-6.160792206477694e-05,-0.004541895867196555,-2.6971608872106145e-05,0.0025852587680659234,-5.746714989071719e-08,-0.0991844595858852,0.00023267163176333665,-8.049526647282607e-08,0.007858229734605001,-8.290675692380245e-06,-0.005499593811959258,-3.519855445637079e-06
3.0700000000000003,-0.0025340793354189373,0.012889939680462703,-0.10272650795377558,-0.0065062300087674885,0.014341837605627461,0.0053907391357199685,-7.605391393461503e-05,-0.004802286106624364,-1.1765209124714461e-05,0.002592465589910553,-5.799041748542239e-08,-0.09895687328743016,0.00024936479025386757,-6.109902623150895e-08,0.0057392051326314785,-8.277308195612843e-06,-0.005745361227361384,-3.519272721730028e-06
3.1029999999999998,-0.0031396334232495493,0.0127872374793854,-0.10191229691546859,-0.015597634388051382,0.0010758463153377768,0.0068597309051730004,-9.089349410640323e-05,-0.0051219545570120335,-2.60154317999195e-05,0.002600422929787305,-5.8423584868262664e-08,-0.09881399976173531,0.0002777525614466313,-4.013880218239601e-08,0.0034704633611649144,-8.264760495218271e-06,-0.005951026472734002,-3.518828203549493e-06
3.135,-0.003643815686700691,0.01282016814002418,-0.10053272534332791,-0.015841252955397067,0.0009807350651698243,0.007138964065887876,-6.0822188607367864e-05,-0.005385066127238324,-2.2614680528221236e-05,0.002609727149005758,-5.8770386040488976e-08,-0.09875293256087948,0.00031543498114778125,-1.820532329202635e-08,0.0011191551772857622,-8.252623974665753e-06,-0.006114491163857861,-3.5185303179774193e-06
3.17,-0.004204323950489197,0.012852703139287769,-0.09764736472243385,-0.016107596865140295,0.0008767057774363707,0.007469807430823039,-6.670355641436033e-05,-0.005717549142548073,-2.0661712427649803e-05,0.0026220047494995846,-5.9060136399123266e-08,-0.09877306264786151,0.00036485429969522866,6.128042366451049e-09,-0.0014725360513196798,-8.239375715470038e-06,-0.006245115162227305,-3.5183707942974443e-06
3.1999999999999993,-0.002853715104265575,0.01186214469043989,-0.09879628909311577,0.009399717783594497,-0.013444608358213372,0.0010427843428360006,-6.769235235726256e-05,-0.005998276600781781,-2.008924604268713e-05,0.00263433231242427,-5.9235309013623225e-08,-0.09885661351375707,0.00041208974056297437,2.6331196006417256e-08,-0.0036073875839079013,-8.228032382626321e-06,-0.006315293160287844,-3.518372167574342e-06
3.2349999999999994,-0.0025204465964634437,0.011384669825019955,-0.09916029918213098,0.009659023912035991,-0.013839407028228834,0.0012113423481920904,-6.23427071593241e-05,-0.006303377294545332,-1.795890877209771e-05,0.002651286106198691,-5.933774553841234e-08,-0.09903606279208313,0.000471573405826817,4.7692804702209404e-08,-0.005827201772100914,-8.214804387052724e-06,-0.006336873961464959,-3.518568361954324e-06
3.2699999999999996,-0.00431210476472188,0.010753255075542256,-0.10033910928132173,-0.018900180772106978,-0.016121503663043768,-0.011949056368280253,-7.076399003524969e-05,-0.0065407805067816405,-1.7903275002506547e-05,0.0026707418586293663,-5.9340973761229975e-08,-0.09928278878114886,0.0005323918155956448,6.570765195855475e-08,-0.007652223201811022,-8.2015835614066e-06,-0.006299000009646212,-3.5189541550057966e-06
3.3000000000000007,-0.0048811813785505365,0.010264009660886586,-0.10011458531698736,-0.019197056184793837,-0.016493903964033052,-0.01203147902509727,-7.073843610694297e-05,-0.006695455257030859,-2.518080321722849e-05,0.002689232552127052,-5.927106476702589e-08,-0.09953510037940358,0.0005832269655990175,7.79806372233651e-08,-0.008850126551982156,-8.190271494827709e-06,-0.0062228394410290405,-3.519422331427659e-06
3.335000000000001,-0.00407973230630887,0.011773598805348229,-0.09848080745314292,0.0004607178086395436,0.011395332842255357,-0.0057838335812050445,-6.548023234342892e-05,-0.006835908853914496,-1.5168264979159574e-05,0.0027129697109817834,-5.909618760806076e-08,-0.09986598717039599,0.0006370168091370501,8.738487920367486e-08,-0.00968286155614899,-8.177229577181313e-06,-0.006080744410603798,-3.520134025068898e-06
3.369999999999999,-0.004060701324760885,0.012175545481568406,-0.09999766269811516,0.0005472127301615615,0.011573826712492519,-0.005754179653166602,-6.328860998827678e-05,-0.00687916234239605,-1.9850670498033907e-05,0.002738384539114235,-5.885220115761099e-08,-0.10021203817680005,0.0006815732621486148,9.128199920072956e-08,-0.009934604550332292,-8.164274494247505e-06,-0.00589593293308129,-3.5209723808807686e-06
3.4000000000000004,-0.003112883664016408,0.011717472950294905,-0.1001041735958097,0.013551839726460457,0.0004273174616447051,-0.01752657730514784,-6.595546421506172e-05,-0.00687307146777405,-1.92186322807153e-05,0.002761099634756903,-5.860564981827238e-08,-0.10050677666851043,0.0007105237112118524,9.043350692976592e-08,-0.009707060127396394,-8.153240356696263e-06,-0.005712492235873778,-3.521758273051185e-06
3.4350000000000005,-0.00262815372843761,0.011731405036925935,-0.09862061009653189,0.013906248611533556,0.00037180648481260903,-0.017714698160261833,-6.139737590737938e-05,-0.006790338774986804,-2.0674137508613913e-05,0.002788249741562555,-5.8293300742300104e-08,-0.10082823489361538,0.0007291710686889621,8.398903435346589e-08,-0.008873155952821118,-8.140468895552033e-06,-0.005477953816723648,-3.5227162768216545e-06
3.4700000000000006,-0.0047144544819275325,0.012440082093917226,-0.0982706170543679,-0.02050751273509377,0.009683346375538804,-0.023255358868254916,-6.342070716680583e-05,-0.00662481986499719,-1.3147466882745817e-05,0.0028153747726133993,-5.7984286061764296e-08,-0.1011095309160944,0.0007314514373913861,7.268906216759898e-08,-0.007546613069044902,-8.127789947921832e-06,-0.0052378398811602995,-3.5236624553643865e-06
3.5,-0.005329922414603061,0.01273237032137331,-0.09854491783607955,-0.020831179345350392,0.009804792403429019,-0.02352028053508093,-6.716063738476662e-05,-0.006424157540710241,-2.699006600570542e-05,0.0028381802426382663,-5.7740934469859485e-08,-0.1013097661640847,0.0007206139082004729,5.982680775952276e-08,-0.006089681073684552,-8.116957999920996e-06,-0.005037142776967597,-3.52443061040872e-06
3.535,-0.005207918936321221,0.012733587926504697,-0.09899542976245357,-0.009715114635810096,0.005300636418269278,-0.025075944799482386,-6.65434058477743e-05,-0.006168920513684118,-1.6872344297258483e-05,0.0028635770980394155,-5.7503448874372596e-08,-0.1014756793242263,0.0006914962056612257,4.1683367945683815e-08,-0.004059524772689292,-8.104468665066392e-06,-0.004823333074263301,-3.525224969891663e-06
3.5700000000000003,-0.005651489250794839,0.012347143165470698,-0.10064079483299793,-0.012180432297782318,-0.007316396609382991,-0.02032632852626648,-6.778138709551129e-05,-0.005878714022448328,-1.940998653182646e-05,0.0028872601106497697,-5.732567500727864e-08,-0.10156702213337968,0.0006483053678990409,2.1528172739909767e-08,-0.0018283257463014057,-8.092153790213193e-06,-0.00464116210814488,-3.5258885089733626e-06
3.5999999999999996,-0.006015754222516989,0.012124630707148754,-0.10165113469429343,-0.012339705000613321,-0.00751534597935688,-0.020523937431562445,-6.60048674121505e-05,-0.005610295007705712,-1.6242670282107238e-05,0.0029059724211579763,-5.722569449096538e-08,-0.10158552680935512,0.0006024540141892939,3.5142236439355198e-09,0.00015292862977027796,-8.081735138813807e-06,-0.00451539600696288,-3.5263429752199115e-06
3.635,-0.005613350099338277,0.011838080787129002,-0.10067833243692803,0.005892657771255472,-0.008175555958985115,-0.01226088656869706,-6.99247643862755e-05,-0.005314903891071587,-1.977132581876262e-05,0.0029253513279536843,-5.71854690678696e-08,-0.10152628194160437,0.0005403808354637063,-1.7251926184781856e-08,0.002421304886606545,-8.069771010158623e-06,-0.004416732758636496,-3.5267055644832386e-06
3.67,-0.005401197536230029,0.011547677653197752,-0.103070886732894,0.006103516806490461,-0.00841688392637252,-0.012316008959714964,-6.538878649653411e-05,-0.005021434094536037,-2.2212314072511667e-05,0.0029421558931845837,-5.722261608023884e-08,-0.10139315239122694,0.0004732620118495935,-3.657161505177355e-08,0.004506441605957114,-8.058002084920029e-06,-0.004369391458746943,-3.5268970453274945e-06
3.700000000000001,-0.005236304396476044,0.011636652148581561,-0.10296953957822552,0.005796045739714373,-0.0010243005653762793,-0.00898320325916302,-6.318613078049042e-05,-0.004796057776951024,-1.5113985333492511e-05,0.0029545553579071186,-5.731409300264598e-08,-0.10122862071472348,0.00041431850283408475,-5.131270099444896e-08,0.006071657541326313,-8.048064257369535e-06,-0.004369233612318845,-3.5269290563289224e-06
3.7349999999999994,-0.005028461323490774,0.011599451591564502,-0.10158491288575533,0.005996324837553857,-0.0011000672616177098,-0.008959323786712048,-6.80707679467929e-05,-0.004598402168588311,-1.5604072383546e-05,0.00296638738158772,-5.749874131808473e-08,-0.10098124045918862,0.0003477303932750339,-6.510437832397423e-08,0.0074956840642932026,-8.036663753113464e-06,-0.0044227613000615285,-3.526793892448512e-06
3.7699999999999996,-0.005082327166746836,0.011848549095930139,-0.10039418660880983,0.0008464681742808011,0.0045792334271652635,-0.008646861944953343,-6.320882800681105e-05,-0.004445190296817446,-1.6591763443152278e-05,0.0029758790377747424,-5.7751583882928056e-08,-0.10069564379978348,0.0002873472586529112,-7.484218688748814e-08,0.008454167337371761,-8.02543065502749e-06,-0.004524518366433884,-3.5265078697230494e-06
3.8000000000000007,-0.005054711303273507,0.0119865444903553,-0.10154498904785214,0.0009183511178889603,0.004621590241782769,-0.008626211862917899,-6.321901235128992e-05,-0.0043629692419031585,-2.3239534781005492e-05,0.0029824586639497497,-5.8012717547121646e-08,-0.10043308684348963,0.0002425748426030583,-7.975269292386345e-08,0.008890501961337198,-8.01588360972486e-06,-0.004644077446991212,-3.526166612317584e-06
3.835000000000001,-0.00570877866812225,0.01157511384690224,-0.10208185753663201,-0.012989118337372929,-0.007015857478080534,0.0012059041191108122,-6.500870804959648e-05,-0.004341084640931302,-1.7218420993447836e-05,0.0029884900278631665,-5.8358014646591815e-08,-0.10012101968392738,0.00020254966256245737,-8.053303604061852e-08,0.008864039079499642,-8.004855330143467e-06,-0.004818051947267181,-3.525675656209336e-06
3.869999999999999,-0.00616732899334238,0.011326095670028735,-0.1026142668160901,-0.013202183202338347,-0.0072144665458040436,0.0014322213543351836,-6.66317299180541e-05,-0.004385423734280636,-1.6929012442545854e-05,0.002993466606380668,-5.87226382809978e-08,-0.09982164616357102,0.00017614801063328778,-7.663646821616374e-08,0.008330751507651,-7.993927450597622e-06,-0.005014329245699328,-3.5251341788234787e-06
3.9000000000000004,-0.005954611452580139,0.011516341710375855,-0.10125765078737459,-0.0009871403518388888,0.0008963216909982918,0.006903372280646636,-6.040884342795037e-05,-0.004466212538204227,-1.9450955904609654e-05,0.0029973096630993012,-5.903584530482354e-08,-0.09958589553535299,0.0001643798883065839,-6.989691141890061e-08,0.007513934091978432,-7.984642422740002e-06,-0.005191535521195558,-3.524658381295549e-06
3.9350000000000005,-0.005989181253426068,0.011547482104106166,-0.10267618597526962,-0.0009240569430133405,0.0008821680731934123,0.007246315445087248,-6.119157356998527e-05,-0.004629600344655316,-1.8666578727177804e-05,0.0030018122913502143,-5.9383470763540315e-08,-0.09935421945232327,0.00016505175927891276,-5.816775635101711e-08,0.006139319573866653,-7.97390420011245e-06,-0.005397724994073424,-3.52412594315851e-06
3.9700000000000006,-0.0059555160769377835,0.01151857665490752,-0.10229189065375976,0.0003885552615798815,-0.00027673471994127397,0.0019109503582583898,-7.467332026900307e-05,-0.0048365071330001,-2.5861663381920856e-05,0.0030068951162598445,-5.96959377795085e-08,-0.09917742762143014,0.00017853984171948924,-4.329822493416167e-08,0.0044397034295446496,-7.963205483919632e-06,-0.005591026000930306,-3.5236552043649665e-06
4.0,-0.005943011463386938,0.011509791792377655,-0.10137770517940226,0.0004648549936128177,-0.00030920963239111643,0.002109623710381925,-6.714259962459222e-05,-0.005037385109786018,-2.116035721932974e-05,0.0030120185329360893,-5.992618430580394e-08,-0.09907390435041659,0.00019874984374015705,-2.8770205569164465e-08,0.002801388044206181,-7.954057236562707e-06,-0.005739587262595193,-3.5233206197773494e-06
4.035,-0.005710858279144304,0.010357075882438949,-0.10043286154677844,0.004812366451517391,-0.023020705644626105,0.0003699642133039305,-7.137248962463261e-05,-0.005292991989270134,-1.5578709092078924e-05,0.0030194419337363776,-6.013185494894326e-08,-0.09902380280755062,0.00023186828553103437,-1.0457731739388887e-08,0.0007571757066158981,-7.943407008178884e-06,-0.005880295932225237,-3.523048512994583e-06
4.07,-0.005539383570976497,0.009542214957491524,-0.09956293351297063,0.004992295039301098,-0.02354264303733089,0.0005603420656612457,-6.147619714846898e-05,-0.005557073415092262,-2.2572186477276546e-05,0.0030285801128275835,-6.026876864398483e-08,-0.09904430843697742,0.0002719088135007976,8.073251960777749e-09,-0.0012959444075857935,-7.932775781164587e-06,-0.00598190043917984,-3.522907753831156e-06
4.1,-0.006761625460512732,0.00996510763252445,-0.10036342121338748,-0.022336309711363356,-0.0012875326891190753,-0.0027711834024586324,-7.026045389801891e-05,-0.0057817036252427725,-2.5316402409547578e-05,0.003037852247158135,-6.033116723748894e-08,-0.09911428322429097,0.00031017018087066655,2.3414932849824635e-08,-0.0029809396785273373,-7.923674342909761e-06,-0.006035842150427165,-3.522893473945477e-06
4.135,-0.007550114753030357,0.009919547910385518,-0.09835932442592821,-0.022752969653993205,-0.0013166299620266386,-0.0026517443693307996,-6.776923746798501e-05,-0.006009815306375454,-2.9022672342282605e-05,0.003050716469656711,-6.032774265455837e-08,-0.09926046348017309,0.00035808617930516346,3.957390285505752e-08,-0.004726310248383041,-7.913068119016807e-06,-0.006051090704779959,-3.523025572002144e-06
4.17,-0.006380890054515476,0.009620461538816016,-0.09762827636359361,0.012825043957491289,-0.005953743235579623,-0.0036446809899786103,-6.357976995108318e-05,-0.006199815239051887,-1.4373462788430658e-05,0.0030655628408493563,-6.025087300726407e-08,-0.09945939897333106,0.00040666080362020574,5.3132815639877e-08,-0.006155175618720256,-7.90247932528155e-06,-0.00601953775534559,-3.523300951181264e-06
4.199999999999999,-0.005990792649299692,0.009440174962719539,-0.0979442750654016,0.013137042894982187,-0.006064350508950156,-0.0035669648360823203,-7.250735657793329e-05,-0.0063323372456833855,-1.9049305104879014e-05,0.0030797189540239245,-6.013197110146745e-08,-0.09966177878903884,0.00044690973229964865,6.228388354324307e-08,-0.007087539270577092,-7.893424822166085e-06,-0.005958245959485573,-3.5236398224129958e-06
4.234999999999999,-0.005840177869686158,0.010187960057464807,-0.09989340334914232,0.007348747382366128,0.012305547455639498,-0.017017107194646997,-6.41359866806468e-05,-0.006424769610078318,-1.7934116735229825e-05,0.003097930713818586,-5.993058184332834e-08,-0.0999261275197276,0.0004889995562035011,6.907352896038353e-08,-0.007727327546367228,-7.882907715312591e-06,-0.005845270864904912,-3.5241553168692737e-06
4.27,-0.005574955814154237,0.010623043564692125,-0.09937475271726726,0.0075855854433939385,0.012558941321458406,-0.01719440088072588,-6.644139241274162e-05,-0.006470848816004791,-1.9403150123498133e-05,0.0031174478023356933,-5.968146062916307e-08,-0.10020176250525929,0.0005234642246769944,7.176359626512312e-08,-0.007904933166539181,-7.87245607554044e-06,-0.0056992405773767015,-3.5247604010520704e-06
4.300000000000001,-0.0056381471299573604,0.010838504879075117,-0.0998457143473388,0.001899787193423208,0.009501540329097224,-0.012557782992018929,-6.444976280084444e-05,-0.0064533091031586665,-2.0317529297653184e-05,0.0031348950513070406,-5.9442145105518184e-08,-0.10043593861490037,0.0005455554386604224,7.089282010799777e-08,-0.007704678919295297,-7.863560931057107e-06,-0.005554828048949126,-3.5253257460868644e-06
4.335000000000001,-0.005566896022628498,0.01117422181641814,-0.09954385315586478,0.002009302295590487,0.009684133651262528,-0.012632871635503307,-8.727056912949394e-05,-0.006392643351051497,-2.1891983212007922e-05,0.0031557400919823846,-5.914622058482793e-08,-0.10069054745308588,0.0005593473207612628,6.57463754869707e-08,-0.007019705535517991,-7.853288415099624e-06,-0.005370788871161434,-3.5260118547122025e-06
4.369999999999999,-0.005165297853181983,0.012141983193259875,-0.09934647905129168,0.008054522625343452,0.021288291968744488,-0.01741938882469185,-6.370900093477516e-05,-0.006260509493533295,-2.2141401498920743e-05,0.003176545983973433,-5.885282646422939e-08,-0.10091250243102136,0.0005603417130926212,5.69774366410247e-08,-0.005944464969148485,-7.84313550418166e-06,-0.0051828746997876415,-3.5266860263574356e-06
4.4,-0.004917356269288575,0.012786081473905142,-0.10033432078171245,0.00825725531444732,0.021654330645333175,-0.017571506662534375,-6.7976479495524e-05,-0.006109328061663533,-2.078801218585724e-05,0.003194016751110418,-5.8614859186900325e-08,-0.10106973582602564,0.000551265161729113,4.708456937325456e-08,-0.004769806635378295,-7.834533200073795e-06,-0.005026150389371591,-3.527231550454737e-06
4.4350000000000005,-0.0049640941529105476,0.012422506179518678,-0.10182275132592622,0.0021823846228130606,0.0014526797979925732,-0.024179971915373244,-6.1034306398699576e-05,-0.0059078636255316406,-1.7972045898151382e-05,0.0032134323129133784,-5.837099095767175e-08,-0.10119878858819163,0.0005279106884301144,3.308279920115302e-08,-0.0031417402246585405,-7.824642364181251e-06,-0.004859671356959332,-3.527793085784042e-06
4.470000000000001,-0.004881010106146277,0.01247294670156407,-0.1018170242814449,0.002282241184616396,0.0014329206366241465,-0.024488538225114098,-7.216541847432367e-05,-0.005678214184885013,-1.9842762091215608e-05,0.0032314867670444336,-5.817229935007954e-08,-0.10126822396070756,0.0004936901988247494,1.756889337026121e-08,-0.0013604777151982952,-7.81489865978348e-06,-0.004718424748226197,-3.528256579986701e-06
4.5,-0.004880932146079431,0.012438525131528877,-0.1018002499645263,0.0010201593917287255,-2.1369336654641913e-05,-0.018838629340962143,-6.261722510636501e-05,-0.005467952528870334,-1.8849201302018056e-05,0.003245704942206551,-5.804198034031247e-08,-0.10128011969834133,0.0004575486195198781,3.7342017149389814e-09,0.00021529157499621156,-7.806660353557954e-06,-0.004621514273109997,-3.528567496300463e-06
4.535,-0.004840418670482904,0.012436854869292802,-0.10200118176953765,0.001091477108076333,-7.154545800647227e-05,-0.019029246347258777,-6.884155824193884e-05,-0.0052413105419484305,-1.9746151970867487e-05,0.003260354881236216,-5.79487227598307e-08,-0.10122989038918324,0.0004087739389397628,-1.2172346364370819e-08,0.0020114882408477403,-7.797203538346947e-06,-0.004546609726319638,-3.5288027991409557e-06
4.57,-0.004280892855604179,0.012602601757407683,-0.10246459859808965,0.009959891564903955,0.0027574537217560646,-0.018108215972006292,-6.67996947503191e-05,-0.005022782955574013,-1.4619886183897535e-05,0.0032729759234397804,-5.791511571107208e-08,-0.10112130897108884,0.0003562064673702048,-2.6927574590923137e-08,0.0036561799448914974,-7.787899457305024e-06,-0.004512349520171901,-3.528908052988098e-06
4.6,-0.003975978017933812,0.012685457217230578,-0.10390863450629695,0.010187946250880486,0.002769085645695668,-0.018253872734931065,-6.801347968599106e-05,-0.004842690940122464,-1.6803314402125128e-05,0.0032822195577191238,-5.7932077726508e-08,-0.10098855538830018,0.0003101779549746347,-3.8148912177119775e-08,0.0048863284123072375,-7.780038755450888e-06,-0.004514888998032048,-3.5288984091975025e-06
4.635,-0.0031657521244596865,0.012265300064655094,-0.10389327059829156,0.018366705636708502,-0.006360053034910607,-0.010883028423563701,-6.816937805398379e-05,-0.004689602483984422,-2.6224986344747223e-05,0.0032909440088717545,-5.801116391888335e-08,-0.10079025871184796,0.0002583260792445759,-4.859156648390782e-08,0.005999231964860103,-7.771011975430353e-06,-0.004560058615336131,-3.5287579349105025e-06
4.67,-0.0025136738186120056,0.012039625508577956,-0.1010547233968282,0.018794432348840928,-0.006533158195821898,-0.010885146055159112,-6.31253108434038e-05,-0.004582703272891121,-2.1472740860950527e-05,0.0032978468981794684,-5.814158821812004e-08,-0.10056227922704553,0.00021138565571474744,-5.5888819263672857e-08,0.006740360913874631,-7.762109427181754e-06,-0.004642939713418335,-3.528505555215059e-06
4.700000000000001,-0.0036418466070244904,0.0127726125542722,-0.10115954358434465,-0.012364207884616008,0.010608562548839018,-0.005106400270022959,-7.28021849725202e-05,-0.004526196819591986,-2.7372448879514618e-05,0.003302558302198833,-5.82861100339646e-08,-0.1003533025938557,0.00017665442948382477,-5.949902298050782e-08,0.007069077854033311,-7.754560910956524e-06,-0.004739142175664169,-3.528217561317308e-06
4.734999999999999,-0.00407803633788717,0.01314731609431874,-0.10228786847119409,-0.012607183805243949,0.010803251936124525,-0.005007981389013594,-6.93989712319265e-05,-0.0045054519173248755,-1.3758792953844079e-05,0.003306789734577764,-5.848619550516551e-08,-0.10010567875605705,0.00014565400474633866,-5.996715870934964e-08,0.007026510058571096,-7.745844749157638e-06,-0.004878025126481166,-3.5278114519146453e-06
4.77,-0.003765204711271508,0.012445794843870317,-0.10080209558464048,6.446372396595734e-05,-0.007434482814147714,0.0007605553275453758,-6.122966844213094e-05,-0.004531034808560097,-2.0864068165593608e-05,0.0033102188867601967,-5.870189970057937e-08,-0.09986888276092043,0.00012526461649214914,-5.68392709004809e-08,0.0065812049457776665,-7.737196010309279e-06,-0.005033946767874367,-3.527368184533038e-06
