t,x,y,z,vx,vy,vz,roll,pitch,yaw,gt_x,gt_y,gt_z,gt_vx,gt_vy,gt_vz,gt_roll,gt_pitch,gt_yaw
0.0,0.0,0.0,-0.09954147180678774,0.006663899707234577,-0.00984473945550235,-0.006040030573814192,-6.21344546289926e-05,-0.006540973695810415,-3.1681134332828265e-05,0.0,0.0,-0.10239165607598595,0.0009266629535612761,0.001662699939167451,0.0037076003113676237,-0.00011905237600922412,-0.004042265250117218,-5.071490464521685e-05
0.03500000000000014,-0.0006375462971845991,0.0006241631044190399,-0.09816362594938255,-0.013441349393929158,0.012436796257929927,-0.008240911168229559,-0.00012424749152684098,-0.006463571402260727,7.545113924756208e-06,2.8825574756474394e-05,-0.00012337279316063782,-0.102155647377125,0.0008004043110901119,-0.0028175550431879613,0.007872010604212769,-7.117857127857061e-05,-0.0039454774658963885,9.824236051679983e-05
0.07000000000000028,-0.0011117361668766534,0.0010645646297291478,-0.09771375052014264,-0.01376305134544964,0.012730452645314472,-0.008477681209114962,-0.0001225759133700599,-0.006272291622498205,2.7455809670229304e-07,5.5122077121882995e-05,-3.947993651939968e-05,-0.10183213845029145,0.0007581513911130021,0.0031370189230167517,0.010160655909707265,-0.00011252541118053231,-0.0039529432502823265,-1.6825496354972364e-05
0.09999999999999964,-0.0014014478539698116,0.001438655964068101,-0.0979706584989018,-0.01107440024517663,0.01270754059265263,-0.013833127431735408,-0.00012896399998663102,-0.006083669269994375,1.9044226836850704e-05,7.512412185839423e-05,4.590433276729133e-05,-0.10147727555478672,0.0006648793214740399,0.002241995210158446,0.012669579809092443,-0.00011222567807131643,-0.004008017427791715,-0.00011891752171847563
0.1349999999999998,-0.0017906856855915976,0.0018883854990860982,-0.09846325417629487,-0.011334301070064612,0.012995469654924818,-0.014177862179337808,-9.951744973557554e-05,-0.005816805584979878,6.501318101159724e-05,9.323452532927725e-05,-2.6637185409758004e-05,-0.1009999871202496,0.0005283565179992778,-0.0028004324572795344,0.01403220742293803,-6.725162051017747e-05,-0.004154396633525968,-1.6339392483047087e-05
0.16999999999999993,-0.0012182422069599852,0.0023246377416512587,-0.10027345377693564,0.009825559794649052,0.01276255350876454,-0.014200377209249382,-0.00011383379985474561,-0.005579695569073006,0.0001249459503585015,0.00010764800186624512,4.813669288373482e-05,-0.10050266037367386,0.0004478197594405554,0.0029214257076026285,0.014590621596475447,-0.00011344005267597556,-0.004384366981156628,-0.00010229173542144595
0.1999999999999993,-0.0009185409921883547,0.002711065983902472,-0.10126245336687134,0.010000997481142804,0.012999666925963993,-0.014489819436676044,-9.833302765516194e-05,-0.005324726413133529,0.00016154712600746635,0.00011806604120501105,7.553980960230537e-05,-0.10005876905919536,0.00038600590023880194,0.0004553518970149817,0.014686722750932083,-0.00010089672281192204,-0.004607914686341834,-0.00012311331445696814
0.23499999999999943,-0.00116642537068401,0.002139285134092006,-0.10028660088346442,-0.003123554856500732,-0.009558108327723858,-0.003761184261847461,-0.00015156043953679085,-0.005014358011505405,0.00015218449406484424,0.0001250302923150313,0.00012072981118612053,-0.09960925216655384,0.0002528483056966141,0.001921498408582972,0.01301700249549526,-0.00011613142859667623,-0.004964617856757027,-0.0001590986239735431
0.2699999999999996,-0.0012765807591677003,0.0018008502065924858,-0.1027275324618131,-0.0032095900463957605,-0.009779455758518907,-0.0038665723107271788,-0.00015928129904585472,-0.00472098418425171,-4.370806402231864e-05,0.0001338576627367692,8.083732742023219e-05,-0.09919210674546801,0.0002954115883308021,-0.0004595091611970209,0.011401963212545023,-0.00010174411383240836,-0.005313961005030727,-9.007959585903254e-05
0.3000000000000007,-0.0007170290118665434,0.0020767349737411678,-0.10251559380049002,0.01127633433338815,0.002706529558707871,0.00022205649099849012,-0.00011106715819231282,-0.004499824527957052,-9.920003897878612e-06,0.00013857041233666934,0.000150394715839007,-0.09888400421418309,0.00019340078404611862,0.00184877432773757,0.009380718619763832,-0.00012928400230070747,-0.005607960021945017,-0.00015999893772423817
0.3349999999999991,-0.00031834210585657274,0.0021724523046771083,-0.1011692212782691,0.011508106942756058,0.0027618189432274676,0.0002128184512368847,-0.00015233102109490912,-0.004284218116922922,4.3800074579269925e-05,0.0001513757360531717,8.596968185567867e-05,-0.09858376011115923,0.0003938237037935161,-0.001005984316296354,0.007500895695578404,-0.00010922236623691733,-0.005888624722987189,-6.12119094811287e-05
0.3699999999999992,-0.0004461368471311289,0.002662765283758972,-0.0999495986175134,0.0010476049489511752,0.010680096286421303,0.0038785763889563896,-0.00015151370358479357,-0.004143284070281973,-3.611827973326598e-05,0.000163330094459457,6.028515510489711e-05,-0.09842014505029309,0.0003909864183657727,-0.0006062338931961247,0.003669308335613496,-0.00012124357521856839,-0.006174775446686386,-1.9500100600582555e-05
0.40000000000000036,-0.0004151739085500594,0.002986094764963809,-0.10095751199378356,0.0010468088654675967,0.010874144011495446,0.003932432059372104,-0.0001506432804494473,-0.004025220043570865,-0.00011950575791352945,0.0001780676564697714,-1.832692349387639e-05,-0.09835106880279888,0.0005353725082100678,-0.003341828729139163,0.0010132175006692587,-0.0001032919343796832,-0.006363055744613048,7.97910211445269e-05
0.4350000000000005,0.00013583695454144618,0.0018036659810150013,-0.10161451857584325,0.011970989584483505,-0.022069008198059237,0.010883635344555387,-0.00012532495646189193,-0.003975656639048086,-8.686143986169625e-05,0.00019321309605246952,2.792988813047991e-05,-0.09841240204759664,0.00040494842463209796,0.0022290010174644396,-0.002846410212545274,-0.00015241244159322687,-0.006550653855808454,1.4741552591904635e-05
0.46999999999999886,0.0005571670244535198,0.0010233688103085115,-0.10219961622124174,0.012193707718438418,-0.022521622139606734,0.011082677526076168,-0.0001412974495367258,-0.004061695965437373,3.135032280843219e-05,0.00021575498267622947,2.3679384982473236e-05,-0.09852544971646257,0.0006494155030862468,-0.00028706837898683033,-0.0042698986965027065,-0.0001451264360228593,-0.006593798099708364,1.8113772848640317e-05
0.5,0.0006297709101090732,0.0016780758273000629,-0.10090491611435937,0.006257774056109611,0.004881792445246447,0.012253797849666626,-0.0001488146522974354,-0.00414346680788924,-2.9726921250805567e-05,0.00023372332497562098,9.194884042626625e-05,-0.09871721351650335,0.0005297375993382977,0.0030909894990419524,-0.0073636827046503345,-0.00017729275509175213,-0.0066015120974870535,-6.545661496375473e-05
0.5350000000000001,0.0008484426275572332,0.0018521629182259858,-0.10235821843889426,0.0063407337241869755,0.005063117622682967,0.01247676020147992,-0.00014512496233454184,-0.004275754156994883,-7.528457965211288e-05,0.00026285675111958857,7.292075466682935e-06,-0.09902333993915552,0.000801756144029012,-0.0030963316059377938,-0.009816843255648713,-0.0001356418933530606,-0.006528429323859176,4.559742745891091e-05
0.5700000000000003,0.0014942760039957648,0.0016456885692832657,-0.10170908778354715,0.014668422554564131,-0.0022492632194683893,0.01968665256060831,-0.00015754119244437703,-0.004483706162590638,-0.00012874818812891317,0.0002908219018538105,5.306966270095852e-05,-0.09940279873905125,0.0007687166979763489,0.0010619178554152186,-0.011045160625167102,-0.00017448697447940928,-0.0063975518871685145,-1.0999870781551552e-05
0.5999999999999996,0.0019348714986335835,0.0015785967972306025,-0.10057540280513422,0.014886512673683683,-0.0022274177268712947,0.01999942644613384,-0.00017817350799775866,-0.0047030899328652795,-6.197438465793682e-05,0.00031883465084625584,3.688155475399514e-05,-0.09974840318823754,0.0008453346095899976,4.210255292428104e-05,-0.012146688772456823,-0.00017033803641654322,-0.0062210989466278685,1.0761720744027558e-05
0.6349999999999998,0.002705062859604368,0.001998337570825015,-0.09995859686932818,0.020159064935569404,0.00793152994464208,0.010555175746674195,-0.0001816496755293606,-0.004972070274698038,-7.169382845040319e-05,0.00035394123561016585,-5.665137973377197e-06,-0.10018016579523804,0.0009403799701635996,-0.001159555885070771,-0.012451724360776014,-0.000171694740122659,-0.005974315400314112,6.138124061154886e-05
0.6699999999999999,0.0034150553119616234,0.0022801517170876195,-0.09913697976162439,0.020519390598565224,0.008170849922407797,0.010717208844710058,-0.00020391072650216557,-0.005234942653961294,-9.771191141849656e-05,0.0003895906258506443,-4.7108758787106664e-05,-0.10062070185011554,0.0009406590759053,-0.0012780838269518119,-0.012696017326120853,-0.00017350092692160172,-0.005710735874128984,0.00010322442682264527
0.6999999999999993,0.0028518773310679535,0.0016598151516404869,-0.09996365270035312,-0.0032455551643408853,-0.009297621666064515,0.003625697369912473,-0.0001726985130208192,-0.005460113848636538,-2.7319985487661565e-05,0.00041937236092870304,-7.878730524133515e-05,-0.10100146104255621,0.0009166254263893276,-0.0006694337507724877,-0.012337947089955151,-0.00017545263687480367,-0.005497194122694788,0.00012872735837319145
0.7349999999999994,0.0027345106041138934,0.001331723800689133,-0.09801903457218941,-0.003421058619323958,-0.00945169810910329,0.0036334174861707424,-0.0001418368287260385,-0.00569808761047108,4.4809475468809985e-05,0.00045583572795981816,-0.00015845005808051433,-0.10134107939583956,0.0009617651591368633,-0.0022174778669421147,-0.009150542123684066,-0.00016058142939123947,-0.005173383554730328,0.00020327229550492717
0.7699999999999996,0.003006923591328814,0.001622589883851333,-0.09742171227298968,0.0036546198236067085,0.0018587719529890023,-0.00039476417776818096,-0.00021568700431995322,-0.005903575532539839,0.00010105773523294558,0.0004905148259939365,-5.2683371469348456e-05,-0.1016256728434633,0.0009418561564645978,0.003666634789041217,-0.007242889105447579,-0.00020751898429479057,-0.004883855859231609,4.803447048093288e-05
0.7999999999999989,0.0031164057554633473,0.0016795815726879937,-0.09771606308004266,0.0036393911067875706,0.001940522656653343,-0.00046545992436186623,-0.0001993014341192812,-0.005990307240243631,5.0539916891523276e-05,0.0005188208280060264,6.56102693385221e-05,-0.1017912869270782,0.0008748786671380987,0.0033493669155595313,-0.004680971210317417,-0.00021632697274082458,-0.004638733390883309,-0.00010107036267685161
0.8349999999999991,0.0028472767821767775,0.0018986673990752934,-0.0993663578651649,-0.004044425677932395,0.00492440438526387,-0.0027613966020823,-0.00021032730844794398,-0.006050366237170481,7.747078702768918e-05,0.0005511379397957753,-7.964038623727067e-05,-0.10188891953616254,0.0008636245819198941,-0.003499436960143541,-0.0018851511824210215,-0.00015582912511362328,-0.004398540518097173,8.179678368599457e-05
0.8699999999999992,0.0027032586658606306,0.0020736873069893136,-0.09885307489457773,-0.004218711465057368,0.00507876086120973,-0.0028858920406378274,-0.00020284420755523056,-0.006133068678248144,0.00014664880609016606,0.0005789696666012027,-2.0219054222000358e-05,-0.101904121152072,0.000777357176753861,0.0018266153318791032,0.0007929751286385686,-0.00019639200488912335,-0.0042336473607954795,7.690254780638968e-07
0.9000000000000004,0.0028713997098748223,0.0020826625434722246,-0.09936386333038172,0.0015489295899016042,0.002306830354669387,-0.004010451237604684,-0.0002300360901914544,-0.006125389808942838,0.0001382900273250165,0.0006010532294586923,5.711203131964369e-05,-0.10181827482751414,0.0006718509417441867,0.003451671810267499,0.003385859580738023,-0.00021519337738060872,-0.004109088800863455,-9.359419112286936e-05
0.9350000000000005,0.0029256342572807625,0.0021649873048374957,-0.09912928072799332,0.0015007311233432574,0.0023993016688166335,-0.0041548630006218445,-0.0002269782642927431,-0.00603812329485809,2.7401457339593094e-05,0.0006231221852974761,0.00011447833510526504,-0.10160067919973265,0.0006031186884127238,0.0014619866846329098,0.006927024959291897,-0.00021004944448271788,-0.004006534388656593,-0.00014775087136341422
0.9699999999999989,0.0034678732608881546,0.002150238779023539,-0.0989641189539725,0.010405137370071316,0.0006537060632361147,-0.008322683056803726,-0.00021492105554887783,-0.005941708814151347,0.00010251693414975448,0.0006426908662078281,-6.13681316945892e-06,-0.10135573538299511,0.0005425520599494181,-0.003568977529102117,0.007377348680974939,-0.00016623570288743132,-0.004040929370069122,1.6101201471406653e-05
1.0,0.003783409451443731,0.0021705021779894196,-0.09987091100538237,0.010531940755186042,0.0006984468388822052,-0.008523903010143385,-0.00020401807686987183,-0.005793538830283219,9.365076424172614e-05,0.000654007356772901,-8.243564308406351e-07,-0.10112556768314346,0.0003663645011592083,0.0013953215539637734,0.008285353584097155,-0.00020172856921480835,-0.004156652253163852,8.53581073153961e-06
1.0350000000000001,0.002884480016746238,0.00148424643239764,-0.10128660386408228,-0.012652196789190384,-0.01229476433053378,-0.010708792758748586,-0.00020633336215070133,-0.005582968217951125,7.86277713102912e-05,0.0006683472081145946,6.134346313777906e-05,-0.10070686187114364,0.0003966172948910669,0.0019261395647391473,0.012009311681407621,-0.0002165036358286834,-0.004222810459817138,-6.5779024540615e-05
1.0700000000000003,0.0024374980785069056,0.0010497664942477059,-0.10132797253709214,-0.01301109849327986,-0.012525965276097395,-0.010981290460847504,-0.0002315658862888093,-0.005369982823966169,9.917680911497587e-05,0.0006759273820442502,0.00010986091505760072,-0.10032122996534384,0.00021497822301473613,0.001554400623751309,0.01104578147484596,-0.000224248082257009,-0.004417883691880606,-0.00011318496919215191
1.0999999999999996,0.002556129363256332,0.0019621626544221726,-0.10111359110533158,-0.0037036975178352805,0.011443997775245407,-0.0037240793551518436,-0.00019788826590660946,-0.005160617902088216,5.338906980378865e-05,0.0006845605607086469,3.6456814609504896e-05,-0.0999829989333792,0.0004063980062445083,-0.004659822410635813,0.011257379387845172,-0.0001802667198987153,-0.004609529601164306,-7.9478458758681e-06
1.1349999999999998,0.0024244385749625508,0.0023675784701993052,-0.10136883173299793,-0.0038590734361036994,0.0117244175814335,-0.0038458399746730265,-0.00016896961985146675,-0.004900627970998439,1.1500697252309067e-05,0.000686337892623401,0.00011049119813120252,-0.09964895705806141,8.338425603472394e-05,0.0016281470244206874,0.00922621405113226,-0.0002399915205842895,-0.004914254856759708,-8.91236840791529e-05
1.17,0.0034774574173752626,0.002519845708320645,-0.10194082072848687,0.017291904859121132,0.007296512274535871,-0.004527828033019432,-0.0002626685904667525,-0.004696568141470792,-2.518534856976728e-05,0.0006938147424979668,0.00010080469931757563,-0.09928744613208593,0.00022273943402738753,0.000368418712971939,0.009734641191321516,-0.00024111767534822407,-0.0051422460316219165,-6.43203026695288e-05
1.1999999999999993,0.0040005495279729075,0.002741038177731525,-0.10324224870646503,0.01753861698421133,0.007452920458149492,-0.00464359566004191,-0.00018446512627079414,-0.004502037051589802,1.482016899023719e-05,0.0006951521267000159,0.00014782846741630886,-0.0990584303122049,8.106698358112444e-05,0.001079614407717322,0.006872388145152791,-0.00025889313951202655,-0.0053875673604754535,-0.00011008845837685632
1.2349999999999994,0.0021412868977677135,0.0014013097233487315,-0.10332019799943737,-0.027492213198684112,-0.021701290360283565,0.002348269813637671,-0.00022079567344857054,-0.004350349353946293,3.789902802298072e-05,0.000706437026789519,6.236554106186453e-05,-0.09883799852170244,0.00031252631549480106,-0.0010673548240659153,0.0055843865421269,-0.00024344817556643843,-0.005619891205417149,6.275059269109018e-06
1.2699999999999996,0.0011666543646242644,0.0006338755956107889,-0.10054484222837345,-0.028182287186382382,-0.022151913794346,0.0023813807394219566,-0.0002127761366428338,-0.004235835595363112,4.240176180259069e-05,0.000717315299039178,-1.0284093775651112e-05,-0.09872702302109491,0.0003706032022609601,-0.0023966202146384844,0.002520702082227648,-0.0002425765459703505,-0.0058560848460178635,9.452152704427797e-05
1.3000000000000007,0.00027310769519317546,0.00010522522674705215,-0.10064776114995766,-0.029494910511857597,-0.019889366592224178,0.0042245333956998365,-0.0002014591957926193,-0.004154324634091378,-6.65645038706586e-05,0.0007262783534649486,4.5514593061729105e-05,-0.0986654818692561,0.00023430033689476548,0.003974066298242291,0.001250587398197497,-0.00029722134928344035,-0.005985032509089355,1.6331605276459433e-05
1.334999999999999,-0.0007722543514319113,-0.0005976495464778964,-0.10182483629387207,-0.030200325672467443,-0.020283960282199587,0.004275912655629099,-0.0002270171505092122,-0.004154230111035772,-0.00017156725633826753,0.0007436170981536257,2.0563072105125364e-05,-0.09864260515074229,0.00046815190424969946,1.0982264752004266e-05,-0.00042614154770720847,-0.00027538178512829555,-0.006033689307231308,4.225720412189062e-05
1.3699999999999992,-0.001548492477468244,-0.00015809716006742747,-0.10026581681358948,-0.02585787140287721,-0.0009515129556376678,0.014746960258889885,-0.0001985820366536828,-0.004194211589071627,-0.00010961779786766714,0.0007598284899721359,-5.069176298603295e-05,-0.09879063760108944,0.0004378801108888902,-0.0022076059373355777,-0.0054637682274325736,-0.0002617583552673685,-0.006138786382721058,0.00012168809154682567
1.4000000000000004,-0.0023337407674262067,-0.00018598784976120442,-0.10155191170042599,-0.02636673849883664,-0.0009154133374735807,0.014983558407834607,-0.0002093994524359211,-0.004293744979876113,-1.8821977722627284e-05,0.0007759804979157181,-0.00012012209132377936,-0.09896606194297271,0.0005332663910564744,-0.002457504264551108,-0.0062050727424745955,-0.00025832010877192683,-0.006166485383705404,0.00019118560914477633
1.4350000000000005,-0.001405743643772439,-0.0004490744762506438,-0.10029214105861683,0.004524234201028321,-0.004791759225668102,0.00905514809272745,-0.00022123703911658415,-0.004431594786959536,-0.00011499411148907511,0.0007948172708616146,-1.4015243518035523e-05,-0.09923063656417049,0.0004896932631443749,0.0036923959580784636,-0.008028327968513101,-0.00031135035973806963,-0.006127681328484235,3.8573507671091605e-05
1.4699999999999989,-0.0012474312529775489,-0.0006174676750845265,-0.0996118667603696,0.004605080385090332,-0.004833589276046268,0.009207620841436892,-0.00020488848368804824,-0.0045747986409705454,-2.2311122233720223e-05,0.0008186170578468033,-5.823221840484063e-05,-0.09952671758416537,0.0006434501820462503,-0.002225622166209444,-0.009074384168939858,-0.00026792886096323117,-0.006011064706713528,8.520163460975155e-05
1.5,-0.001442330172721995,0.0004162075753413319,-0.09929794032859718,-0.0012116265198756082,0.015983925959062617,0.009595120000824409,-0.00018562256073728634,-0.004718192160724222,-6.580740553374653e-06,0.0008384006570683056,-9.89426373032647e-05,-0.09983988785266835,0.0006181254070977253,-0.0010057631750067385,-0.01045755197176619,-0.0002730716998140018,-0.005916621131983824,0.00012384450602079708
1.5350000000000001,-0.0014870494364913611,0.0009824960253581594,-0.09695712889470087,-0.0012519348375406025,0.016371460271102478,0.00975960188713998,-0.00016475234488444457,-0.004915709854458773,-2.8941074343258315e-05,0.0008651527882685969,-7.80388448311983e-05,-0.10017459225935706,0.0007164032016140062,7.590983661929281e-06,-0.009623991007316816,-0.0002814148507376604,-0.00570697980251903,8.249037185328675e-05
1.5700000000000003,-0.0019932023756155104,-0.0008284548061112673,-0.09843647362322372,-0.009045876129107455,-0.023336902621622357,1.3172534541576464e-06,-0.00020757907933921513,-0.005155733515981975,-2.3197066784330638e-05,0.000891453875555559,-0.00010065841760501608,-0.10052212000582723,0.0006926592779897297,-0.001276425496226453,-0.009767607698276542,-0.000266924962181493,-0.00549619609534251,9.737934545841454e-05
1.5999999999999996,-0.002267251220473554,-0.0015344978262703535,-0.09958720204440397,-0.009221458840215746,-0.02373376308855768,-4.295248184660316e-05,-0.00022670490445841904,-0.005273497291488295,-5.036838022265399e-05,0.0009151653145433869,-3.581749479525026e-05,-0.10079635478895083,0.0007576568173557187,0.004596514344466211,-0.00879959296217956,-0.0003127728429906228,-0.005295787460542609,5.1771604253397e-06
1.6349999999999998,-0.0008070341973507311,-2.4143553588373834e-05,-0.09974489796604757,0.020731057303464695,0.01540613050644879,0.008511025095174318,-0.00021691534107182167,-0.0054517124323481,4.2244528397628045e-05,0.0009434886696522141,-4.614113184605773e-05,-0.10105054185207352,0.0007921855839135146,0.0015256517473732577,-0.0064870810333437145,-0.0002846589943025957,-0.005030740237916815,1.0319510626858133e-05
1.67,-7.533255666203331e-05,0.0005220170235418209,-0.09769103726694084,0.021176982729230076,0.01579760852553136,0.008655992533135759,-0.00023307784139214857,-0.0056100350904912935,7.955576992957349e-05,0.0009696423943346133,-3.323321968022094e-05,-0.10127394822218352,0.0007096236607852088,0.00011750541861116218,-0.005671273872023674,-0.00027591580857869944,-0.004812659346956714,-7.879818252628011e-06
1.6999999999999993,-0.0007659400307602482,-0.00038133263115014415,-0.09802978498055381,-0.000905124991945172,-0.007181517310300478,0.0028953000090723435,-0.00023879350676025982,-0.005697623412110443,-1.6509497859473757e-05,0.0009926469929339974,-5.9162199087199865e-06,-0.10138427849397265,0.000728454436752146,0.0007752942786867523,-0.0030520198360664006,-0.0002713367161529644,-0.004605067530867156,-4.0871882371910234e-05
1.7349999999999994,-0.0007990250296643353,-0.0006347428037258851,-0.0999661977375581,-0.000951243340800545,-0.007300584842568014,0.002894713798070825,-0.00021076770080030719,-0.005713266177260312,-8.20046560470189e-05,0.0010144671881824325,-0.00011267414422086696,-0.1014730607942823,0.0005776372232761939,-0.002936856312627995,-0.0017462296451034843,-0.00023832911759920098,-0.00444680659694057,8.924621274029734e-05
1.7699999999999996,-0.0009310973491665209,0.000460035321708574,-0.09868254264347343,-0.0026142999448097726,0.014570962559503187,-0.0037241127565152965,-0.00022633769193491918,-0.005752691689093314,-1.7135742220730778e-06,0.0010359795503056542,-6.785093371627454e-05,-0.10147417922391513,0.0005869544222005534,0.0006481545747547396,0.0009072346761351121,-0.0002617531474218605,-0.004317952111482397,2.4763548089464795e-05
1.799999999999999,-0.0010099133119183534,0.0009013520534608688,-0.09941999565489823,-0.002681972928456844,0.014852098808603387,-0.0038302249178343573,-0.0002103048043444744,-0.005770006607113576,0.00010980349761524619,0.0010536172766899543,-4.975048820380629e-05,-0.10139166730236093,0.0006116690807542722,0.002373998620931578,0.0037536489137048757,-0.0002645929061135612,-0.004213578325182915,-3.5068221458785335e-06
1.834999999999999,-0.00033143889686471084,0.000640828507414426,-0.10037094096423971,0.010206567746536166,0.0019862939771684296,-0.005205450996612626,-0.0002477334463000247,-0.005781425313583277,3.7979461593451447e-06,0.0010704927001303761,6.080946634029981e-05,-0.10124170183220582,0.00045385444775880975,0.0028140997447583275,0.004871982231856845,-0.00027742993362209797,-0.004174685193494089,-0.00013401768522240342
1.8699999999999992,3.0392888220376335e-05,0.0007110309095423872,-0.10050551754284243,0.01040943140935724,0.0020275639293032555,-0.005355112754671154,-0.00021450956813140465,-0.005659307154953551,9.048628912511343e-05,0.0010829698490582016,0.00010388379764021498,-0.10104028668683007,0.0003644897684802543,0.0004112528049772567,0.006460107565732347,-0.0002658854687123383,-0.004202669506720616,-0.0001646344865058987
1.9000000000000004,-0.0006872296025903779,-1.2405035846541068e-05,-0.10132001800820944,-0.00682496929402987,-0.011149825609379604,-0.006875040192227289,-0.00022869950560489022,-0.005517800033110643,0.00010741935882041533,0.0010940021757237517,-1.1132205815612269e-05,-0.10082073425584671,0.0003865894655726808,-0.00446652763291908,0.007824698685036458,-0.00022027763022208207,-0.004254769313263914,-5.183172301251276e-06
1.9350000000000005,-0.0009276321266042942,-0.0004068738743683298,-0.10102819400435692,-0.006989282944516617,-0.011387259321679721,-0.007048565364414117,-0.00020797353215273873,-0.0053575261514398065,2.142436011487448e-05,0.0011010789083336638,3.6046922311926567e-05,-0.100566014505993,0.00021918781495644993,0.0019105321602622635,0.007835639141807044,-0.0002682837030393897,-0.004411042894708722,-5.909135841006446e-05
1.9699999999999989,-0.0008028057054616511,0.00043256698896243506,-0.10169008268803736,-0.0012637692655630417,0.008044595022056455,-0.0041196810772134995,-0.0002578725962747441,-0.005154258850386561,9.50856941490663e-05,0.0011088166996091604,5.561014221159148e-05,-0.10023907212738999,0.00026277149633303025,-0.0009132136539276785,0.009444332984609897,-0.000254122567111211,-0.004536111330878541,-7.094156323262861e-05
2.004999999999999,-0.0008470309571748658,0.0007171509641921148,-0.10191979970704779,-0.0013046003297176867,0.008219599503433983,-0.004233152155507014,-0.00023483637113441708,-0.004922145564083992,4.274061681019959e-05,0.0011151896801553372,5.787388153845454e-05,-0.0999161074501781,0.00017080827355105027,0.0015259597526426358,0.009112934660163947,-0.0002746752668302943,-0.0046997505420677205,-6.347356207411686e-05
2.035,-0.001735133537749789,-0.0002814673741795559,-0.1012731608921058,-0.014696051133114452,-0.01128557550066489,0.0010545120298317556,-0.00023687340984945843,-0.004765096078284791,2.666821123842311e-05,0.001120074064985932,4.905227727366585e-05,-0.09965322149429277,0.00014737087016042206,0.0016355339114122371,0.008528226526340008,-0.0002775289212656221,-0.004858579276367884,-4.7415270487740014e-05
2.0700000000000003,-0.002255589929063717,-0.0006810860094503823,-0.10132718872455371,-0.015035221896823714,-0.011549592658980146,0.0010571521551483443,-0.0002288351804828892,-0.004598451070460641,-1.4222974132671595e-05,0.0011238593888771575,1.619589534593227e-05,-0.09941763334050083,0.00016069406154104024,-0.0012090207414556305,0.006542004122415446,-0.0002578613839351033,-0.005101148407772289,-1.5174986640520022e-06
2.0999999999999996,-0.003272925599503651,0.000735647611264767,-0.10189373255934697,-0.024105819365104253,0.01580471503575609,-0.0012716043967841983,-0.00022766706542798334,-0.0044526727863232205,-3.034524276168682e-05,0.0011267765447273703,8.906718181361383e-05,-0.09921419322849746,8.342331734045711e-05,0.0033774783992877424,0.006201752412471157,-0.0003015887265700932,-0.005260234102868087,-8.781125120572905e-05
2.135,-0.004125628300243989,0.0012945274921776218,-0.1008787051168838,-0.0246327523848322,0.016130617509475087,-0.0013107127443134914,-0.00022351879002258102,-0.004331766220734501,-2.3961520454918176e-05,0.0011363564441171368,-1.72493629568391e-05,-0.09901332351535701,0.00027982194222049637,-0.0033114287027116033,0.004580785740375715,-0.0002498270925426041,-0.005405585168458327,5.067836230120773e-05
2.17,-0.003656479133042012,0.001002326655594743,-0.09998614714731957,-0.004920587678896027,0.003443050800839842,0.0028933224172078553,-0.00022090599610935518,-0.004295773536340252,2.0978434974949785e-05,0.0011431392832128573,-2.420675152915892e-05,-0.09891397710509722,0.00021927833687209936,-0.0005977053974310343,0.002166530995892104,-0.0002714505358304709,-0.005573559400170193,5.480623427666049e-05
2.1999999999999993,-0.0038059126468397153,0.0011064081778897616,-0.09966949970930727,-0.005017145808778878,0.0034940645657286495,0.0029296446073487914,-0.00023303450641964926,-0.004210346510740592,-3.8423531046216646e-05,0.001150694360975812,-4.14631878931089e-05,-0.0988772610898069,0.0002502489457747701,0.0008638213586221423,0.000564932056520945,-0.0002779671579337432,-0.005685524087803256,6.787513091415313e-05
2.2349999999999994,-0.0031846085303186555,0.0016605284218655925,-0.09932546654226826,0.007269886141045845,0.010230571954537027,0.005682328572532924,-0.00020828543105810843,-0.004168850089895316,-4.13289284768581e-05,0.0011588893275444876,7.416480126742607e-05,-0.09889398243124796,0.0002414754152798992,0.002602187773691942,-0.000971101165261623,-0.00030705874997189516,-0.005758837156012155,-7.590146953324268e-05
2.2699999999999996,-0.002928302925738535,0.0020221684092973646,-0.09914918981303344,0.007422826163463014,0.010433098650992179,0.005785338844191301,-0.00019673840675737964,-0.004226923524711879,-7.086870075934114e-05,0.0011710222865008997,6.397655953026478e-05,-0.09896984410436091,0.0003612598695075545,-0.0010168770004889017,-0.0029761368787810977,-0.00029000344851585135,-0.0057784448466079415,-5.1117411984356154e-05
2.3000000000000007,-0.00332310504745692,0.0015789827279490964,-0.09838269558940738,-0.002070434098925489,-0.0012130954389490967,0.009123522390552807,-0.00022310543083658985,-0.004334962380653451,-7.407557634619978e-05,0.0011844976100672255,-4.207727701663948e-05,-0.09910704587570615,0.00043207991583523375,-0.003616978616921694,-0.005249521020272427,-0.00026416941911632126,-0.005791987005253615,8.391829988125589e-05
2.335000000000001,-0.0033979325312429864,0.0015356808980868664,-0.09831245111990938,-0.0021248578701715815,-0.0012652086579194588,0.009288611202180164,-0.00024100623164002855,-0.0044224855372512195,-7.609531261110192e-06,0.001197852433873159,-2.734598172847773e-05,-0.09936469407637456,0.00032996481125069404,0.0016729725622401125,-0.007856759621266725,-0.0003043296793246173,-0.0058136142994676026,5.382954777769223e-05
2.370000000000001,-0.002639471676957328,0.002828022963797139,-0.09968336579640891,0.009940369752257538,0.018087079526253547,0.01014441028598867,-0.00020451200252225016,-0.0045285654891653575,-9.134897251161787e-05,0.0012143853636357178,-1.0471393237130384e-05,-0.09962889722312113,0.0004769254242321102,-0.0008274232399485683,-0.007530904626260679,-0.0002904556350950858,-0.0057453210184062325,2.818425021403763e-05
2.3999999999999986,-0.0023399695055559278,0.003375368396604017,-0.09815972512797089,0.01011705303301369,0.01839991913288941,0.01030657961439374,-0.00024204032246277768,-0.0046665534963659105,-9.175166283403872e-05,0.0012325230384027097,-0.00011126570042983602,-0.09984682285780748,0.0005455898101116462,-0.0028590370282637425,-0.0075046178792784165,-0.0002697318039978465,-0.005621104679236157,0.00014551165854417367
2.4349999999999987,-0.0025807946062741394,0.003999330640510834,-0.10004127746242375,0.0015223442010778854,0.018374097580931448,0.009825642549003533,-0.0002509767168308308,-0.004836637216199868,-1.7045133206661227e-05,0.0012524462787795172,-1.273213697964094e-05,-0.10012464083174044,0.0005190753526456188,0.0033150339049569377,-0.007949994593756995,-0.0003190228600311367,-0.0054637670192929375,8.159603392621933e-06
2.469999999999999,-0.0025287852358815144,0.004648750334609986,-0.09980448235910444,0.0015438328744465935,0.018730881047645198,0.009994838937245731,-0.00023003946590982594,-0.0049642632305300066,-8.805093257402417e-05,0.001274843306361183,-8.356258106831742e-05,-0.10037429957029839,0.0005964497422447282,-0.00288616986006833,-0.007008782803428546,-0.0002705833090982032,-0.005259208541756843,8.977326176643056e-05
2.5,-0.002345845944546454,0.004099423034020333,-0.09906929464023051,0.0036638242661410914,0.0019935277084215386,0.009043090257534914,-0.0002610600017689535,-0.005113711246648833,-4.76037332295398e-05,0.001292556777999998,-8.396359982701318e-05,-0.10059864025548249,0.0005570016198842276,0.0012973930108733226,-0.007224613341053921,-0.000292081812119757,-0.00510901929511523,7.811871678621063e-05
2.535,-0.002218141477442259,0.004169422879726881,-0.09896215607341219,0.003728219101645891,0.002002339247439977,0.009190190780373086,-0.00027927099906177594,-0.005277615225948384,-6.910861965714334e-05,0.0013159478816660017,-6.03087992440684e-05,-0.10076921016705259,0.0006104903888464883,0.00031162035405999733,-0.004897335611269595,-0.000290743329680647,-0.004862658533311084,3.8507677734359074e-05
2.5700000000000003,-0.0022779661662752915,0.00454455035610124,-0.09849472129326386,0.0010271389369478356,0.006426420249397324,0.005507381301583791,-0.00023438324098412622,-0.005363894340664643,-9.463104962348368e-05,0.0013353997303697795,-5.642427757590298e-05,-0.10095239972549908,0.00052686964248091,0.00016057462977192165,-0.004706276108450898,-0.0002800569009263782,-0.004703420309850968,2.652823216923487e-05
2.6000000000000014,-0.002247974691726995,0.0047387042119595435,-0.09893450033860063,0.001031711531211954,0.006514763626370268,0.005560333857374644,-0.0002714494512319199,-0.005472722886548986,-4.367664452109566e-05,0.001351987567153935,2.8228423390559803e-05,-0.10105981999335965,0.0005216690739636145,0.003668206552036353,-0.0029602267879734316,-0.00031178929364688896,-0.004568816140466388,-7.970489066523801e-05
2.634999999999998,-0.002547936842802301,0.004553542667949273,-0.0989155061515703,-0.003925445204004063,0.0005086134989973345,-0.0005500095744430666,-0.00024021103942706295,-0.005568316471795676,-2.875908642829828e-05,0.0013711632013895234,-7.31540961793667e-06,-0.10109256870019166,0.0005162655471434024,0.00022470644319928833,-0.0005181801138903306,-0.0002787984308410123,-0.004401252680460281,-3.057957043888119e-05
2.669999999999998,-0.002686963735413883,0.004570869141190315,-0.1007161206625824,-0.004025469089924627,0.0004820444384598943,-0.0006264330775849203,-0.00024123331772107903,-0.005567924451600702,0.00011555280675334957,0.0013854161011006554,-5.777756927828579e-05,-0.10112310480263345,0.000368260931751242,-0.0017975002445940497,-0.0005296319352395154,-0.0002579767269924517,-0.004345328791325706,3.322712564681515e-05
2.6999999999999993,-0.0034462705029909557,0.004140581219786554,-0.09814114949131181,-0.013441889672549223,-0.006052326912453054,0.0013211760531888217,-0.00024071560340388495,-0.005548986809723823,0.00019467836080222517,0.0013977201848316403,1.0353654921061502e-05,-0.101081976187743,0.0004352143804902059,0.003943805919874994,0.0026124303666851347,-0.00030367854198819634,-0.004296830241136637,-5.387761491416748e-05
2.7349999999999994,-0.003922291886738094,0.003925702685293686,-0.09749169868700847,-0.013747403368597588,-0.006222362338405674,0.0013034271442649015,-0.0002857519690455667,-0.005506375789175344,9.154419582380055e-05,0.001412802066745655,-9.32467915219506e-06,-0.10091141474542864,0.0004190833866289698,3.149323127900642e-05,0.005257456860742827,-0.0002686533484889735,-0.004204212041549103,-2.597933062121208e-05
2.7699999999999996,-0.002724595773997862,0.005222744090104925,-0.1001239353145138,0.009644954379609771,0.014982222876597007,-0.004209858387412169,-0.0002890848344372366,-0.00537775197845658,-3.596262470795253e-05,0.0014224428292139988,3.5153590739980045e-05,-0.10074740786379112,0.00026221926678575246,0.0011407073038551168,0.004921941377728058,-0.0002798720127385944,-0.004229271748652542,-7.438776095486279e-05
2.8000000000000007,-0.002432318970477354,0.00567554403129833,-0.10000357288708983,0.009794248318939935,0.01520733304442956,-0.004316499434111165,-0.00026031760376765695,-0.005266379743015027,3.263734156400134e-05,0.0014291676924447216,1.3769218167242352e-05,-0.10058502813515058,0.0002455783640259671,-0.0013727159098718138,0.005876834180669293,-0.0002659394590509296,-0.004291374264419459,-3.8844686688432736e-05
2.835000000000001,-0.0030263376452239754,0.005435362408036326,-0.10058139432203461,-0.0036525265534237406,0.004253050058991903,-0.01293427427253846,-0.00031120959722619196,-0.005172832714088749,9.540534020757718e-05,0.0014347512047088176,-2.0876528210826418e-05,-0.10037968613802792,0.00022111513717496054,-0.002635161208505669,0.006771289232699489,-0.0002491798527377514,-0.004414161718808876,1.1220697564872704e-05
2.870000000000001,-0.003153875379211968,0.005584490299249012,-0.09987438882990318,-0.0037688543871468028,0.004276435579328108,-0.013235284124675673,-0.00029044442159564815,-0.005071671829513846,6.674731220268626e-05,0.0014403032306167243,5.7945754807932386e-05,-0.10011540820362747,0.00015896123273754603,0.003183159610380402,0.007707992161501105,-0.00029832496925115415,-0.004509796920807499,-8.287812465198395e-05
2.8999999999999986,-0.002794270139929722,0.004542366201022219,-0.10162784167278005,0.0029907311072179255,-0.012649128391558406,-0.007548683937045553,-0.0002616493897646954,-0.004915071774098224,6.2287372380343e-05,0.0014448439446965722,5.5562730746554746e-05,-0.09987992635418022,0.0001902562645166199,-0.0011289803051247847,0.007734415035530333,-0.00027376121676535314,-0.0046020364021129075,-6.930852932309964e-05
2.9349999999999987,-0.002687744059585384,0.004093619579521146,-0.10011277460534984,0.003021712099098295,-0.012989609131238922,-0.0077200866011821745,-0.00023722866886943808,-0.004771769327156061,3.5763612285855124e-05,0.0014473225038613697,2.7035083539714576e-06,-0.09967437345200701,0.00015812138977161814,-0.0028430500128379613,0.006351910858820704,-0.0002551493189107349,-0.004796770615447903,6.531011090328941e-06
2.969999999999999,-0.0032574302167631686,0.004112911863657587,-0.1005030068022279,-0.006105349810241023,-0.006831736337801431,-0.0048911711784001,-0.00023495566085207642,-0.004675032972215386,6.026024225080917e-05,0.0014499189511067987,7.681635944976271e-05,-0.09944909250353216,7.34340444256098e-05,0.002936681287410433,0.006202727341634636,-0.0003061233292456331,-0.00493798313399902,-8.05017152753543e-05
3.0,-0.0034419959215483686,0.003905311884807361,-0.10068611543101724,-0.006244902929836371,-0.0070057343744736045,-0.004991787962040917,-0.00023426117787206382,-0.0045683697682443744,2.573266961025666e-05,0.0014544510032008517,4.946511553904993e-06,-0.09928864428608172,0.00021004405482112778,-0.004340599426776311,0.004632339718064946,-0.0002519091006010486,-0.005064617854416919,1.7341629489447197e-05
3.035,-0.0028457892317419464,0.002198177544897817,-0.10037496203813134,0.004670019157174465,-0.026967878730829398,-0.0023507009195355977,-0.0001929028377496422,-0.004437367624405385,-5.8205971273928014e-06,0.0014555690732864779,4.331272227484851e-05,-0.09919067658611364,8.671525067331733e-05,-0.00031807355205820285,0.0023858264955225147,-0.0002911355857165825,-0.005253635330469894,-2.456271803312418e-05
3.0700000000000003,-0.0026806360601767665,0.0012432378336200145,-0.10158395364715034,0.004747159431758519,-0.02759891061214148,-0.002413197141081014,-0.0002591555921487298,-0.004401615563778716,-3.495697888800108e-05,0.0014591704011905904,0.00010602129183126836,-0.09909046602407914,0.00010858970211038848,0.0020661762833203514,0.0024869216584745496,-0.00031541017381146274,-0.00535082914602375,-9.350073449945015e-05
3.1000000000000014,-0.0038148753733366902,0.001987362539807691,-0.1011327718888424,-0.013095851567527461,-0.005960570208458194,0.005153708569963555,-0.00026644211135362633,-0.004342791697104609,-4.8971513127327164e-05,0.001465787641776295,3.855619723548023e-05,-0.0990628898779898,0.00031642578989597985,-0.0045844954557359785,0.0001727645299376464,-0.00027015750744554797,-0.005435544762939679,2.1035495283329068e-06
3.134999999999998,-0.0032240701929401316,0.002698201821274504,-0.10058919958897025,0.012779482158549876,0.016723568029069474,0.009148845096583376,-0.00024685134158852756,-0.004337898946768615,1.05696684058465e-05,0.0014667992218451162,9.911385630612793e-05,-0.09915697436639898,2.8974119145570648e-05,0.0014966492459623632,-0.0030043747622634396,-0.00032331664391019787,-0.0055873280651490866,-6.509598436334679e-05
3.169999999999998,-0.0027733281963264744,0.003288961514243738,-0.10069494014260272,0.01305562357663348,0.017030930581086068,0.009320950210110368,-0.0002593774952357464,-0.0043413637106422,-0.00010749761494110996,0.0014798962755748761,2.617031661034497e-06,-0.09922549393986743,0.00041826968135607955,-0.003384702702160379,-0.0022673317307819654,-0.0002909285326350727,-0.005597148436099557,6.066060231359459e-05
3.2010000000000005,-0.0033616459910120605,0.0026328406968269347,-0.10003664355514405,-0.010929931992511098,-0.011632905409078617,0.012092217869509984,-0.00024971061867518074,-0.004392907537578593,-0.00017896191344668463,0.001492111057373569,-9.219889564679475e-05,-0.09933819955101672,0.00036718412174634835,-0.0027397821102646343,-0.004035850617535819,-0.0002931905430050931,-0.0055946752369028735,0.00016832753917166607
3.2349999999999994,-0.003739314591712173,0.0022321067527286687,-0.09916742642599274,-0.01117531696502283,-0.011947711656148385,0.012310879344795467,-0.0002613922442935567,-0.0044766975546699506,-7.915013662174175e-05,0.00150451790708006,-0.0001181550108784308,-0.09950299803611853,0.00032218179703024475,8.114376181407113e-05,-0.005378060488409925,-0.0003098056944756476,-0.005560429100831021,0.0001746116554245311
3.2699999999999996,-0.003595918125483877,0.002803951123269144,-0.10057347838437636,0.0008417193810004164,0.010371367318327884,0.004012982866782977,-0.0002771317289607111,-0.004575385812714216,-0.00015961994232283064,0.001517696302248516,8.26911318531928e-06,-0.09968746309099837,0.00037035819595947466,0.003301546137563868,-0.0051235395593177725,-0.000347750748560758,-0.005473962863618251,1.1029677917762337e-06
3.3000000000000007,-0.003571021512925654,0.0031172277763289458,-0.10032876751301956,0.00085188605221731,0.010511917081942102,0.004054961559887715,-0.00022109901477662672,-0.004672056736222174,-8.68391606738683e-05,0.0015322068034677727,3.5758062425148484e-05,-0.09981887376546887,0.00045832458914162565,0.0005029929399032215,-0.004555298872880227,-0.0003329029548057945,-0.005327679002184293,-3.248686125277163e-05
3.335000000000001,-0.003009116097473452,0.002389985145271112,-0.09942446213926814,0.012890445567222741,-0.014079549921802936,0.009274664007193678,-0.00025058751003381724,-0.0048210290907904066,3.8533118868588894e-05,0.001547450300776188,-8.76275207037622e-05,-0.10006344414404249,0.00038884404796311623,-0.0031167107814236692,-0.006945624062249645,-0.00029616635165059113,-0.005243794438389076,0.00011662120114151885
3.370000000000001,-0.0025546907954776543,0.0018905919170038032,-0.09830818586488022,0.013168034096906922,-0.01446252265043313,0.00943667078058752,-0.000264591353914323,-0.004973000916040248,-2.3897833367758636e-05,0.0015618205272533998,-8.698719338581628e-05,-0.10030632444108466,0.00037427014867729336,0.0002924680297369971,-0.006863070847521744,-0.00031850096110684964,-0.005146151493844675,9.950491351274334e-05
3.3999999999999986,-0.0031616117342772865,0.0024100911227441426,-0.09809178008886275,-0.01039082349965818,0.007893782250468287,0.002735253467707549,-0.0002327989304062861,-0.0050446577769252,-2.352467800825764e-05,0.0015743189304382454,-7.211553952862585e-05,-0.10050284245911383,0.00039628415230288347,0.0007258285346267319,-0.00617700314906504,-0.00031681348963668346,-0.005054119598255142,6.783583882308025e-05
3.4349999999999987,-0.0035295836414661608,0.002687968851518008,-0.0998406718113074,-0.010608817264255777,0.00798320123283247,0.0027566426587384285,-0.00023408025018056835,-0.005092706519054246,-1.9348456907763985e-06,0.0015923243671454022,-2.8793306270503032e-05,-0.10063705550653615,0.00047304685552274344,0.0024159583545592936,-0.003784539862758129,-0.00033354918318356043,-0.004861567012371885,3.883750568056441e-06
3.469999999999999,-0.0036633277013606858,0.0022301810286649015,-0.09998694059095214,-0.005492307068777791,-0.008210914875064645,0.0035631543616290173,-0.00023533065985059662,-0.005222442423108655,2.245895770958128e-05,0.0016066695542882308,-9.172090691009948e-05,-0.10078299324256987,0.0003577226199855294,-0.001962482069783087,-0.004090216090955451,-0.00029108415564761567,-0.004742690273989579,7.508975532633955e-05
3.5,-0.0038299584139167564,0.00198047887664643,-0.10028348625291983,-0.005579995626931122,-0.008436931010066928,0.0035966391346136106,-0.00025571530362356043,-0.005296520330405842,5.888494212191731e-05,0.0016192896911375598,-4.585047368289776e-06,-0.10087335403786664,0.00042774857877114666,0.004116054984449978,-0.0021168976870227633,-0.00033929751076352134,-0.004648061538570328,-3.9972122136483974e-05
3.535,-0.004153470847995777,0.0018806145780558836,-0.09875159000694111,-0.008490400373716511,-0.004273539243911273,-0.0024068599761193354,-0.0002659874986359334,-0.005356620204119088,7.743746713595456e-05,0.0016339483081180277,-3.00204027635127e-05,-0.10089522648783486,0.00042398206508129977,0.0014777832642879443,7.443160650370492e-05,-0.00031302549521726225,-0.004516937715668307,-1.1163163813789371e-05
3.5700000000000003,-0.004453019681477599,0.001728064811004515,-0.10007676615168748,-0.008653949677295714,-0.00444068130198616,-0.0024968409728955976,-0.00028684648892784986,-0.005341312246893714,8.731558629682111e-05,0.0016455982696608196,-2.901866216104331e-05,-0.10089984942347727,0.0003085049888217011,-0.0005409241142357391,0.00023336264957773902,-0.00029740930814623964,-0.004456928332483562,-1.1686077876606034e-05
3.6000000000000014,-0.004531127055088291,0.0015384419449731013,-0.0990782392877918,-0.004725881240290164,-0.005785682179947571,-6.640195115714675e-05,-0.0002590850059172034,-0.00530877523366069,5.467969324923771e-05,0.0016557582851755015,-9.091182625087394e-06,-0.10084188146123835,0.0003406612829924555,0.0008552777295385099,0.0025410095317504357,-0.00029960325546542346,-0.0043966782773000555,-3.504044892458677e-05
3.634999999999998,-0.004697801449765393,0.0013325410770903545,-0.09863942335005049,-0.004800623852190711,-0.005979051817149639,-0.00010099019809883814,-0.00030111504890362184,-0.005252010848790791,7.329910688236296e-05,0.0016650413558851878,-7.328610108053014e-05,-0.10073097256576947,0.00023336691808168168,-0.002732203771550112,0.0033205677377555606,-0.0002677694687025619,-0.004366821442740774,4.6338576137839425e-05
3.669999999999998,-0.003679793016090116,0.0020026389806844236,-0.09843076306788134,0.018878132279041893,0.011499014907656147,-0.0038158033144952697,-0.0002707373981269967,-0.005192248568018699,-6.495676044515619e-05,0.0016733519036242757,1.3547512451544518e-05,-0.10058573828384029,0.0002507182152108672,0.0032915566585458964,0.004748991560404151,-0.0003139690473721154,-0.0043757059497232,-6.328529351138905e-05
3.6999999999999993,-0.003107158211605565,0.0023500062629295826,-0.09971716550489873,0.01925707167197288,0.011662862978766952,-0.00391541159919484,-0.00027637003306502084,-0.005130966454314212,-2.8780082514501253e-05,0.0016792579215332282,7.639489720111723e-05,-0.10041799954080945,0.00018912958706721194,0.0018722468488523995,0.005817283656233285,-0.00030614776755353044,-0.004384063494375131,-0.00013209230835385435
3.7349999999999994,-0.003366577375345514,0.002636645832836848,-0.1002137449941074,-0.00023627994555930343,0.009211600188791635,-0.0050334767396691404,-0.000257455985898769,-0.005000372204763791,5.616698719279611e-05,0.001683248914746693,4.593594683136318e-05,-0.10023651485119814,0.00016764204201252239,-0.0029841499609724034,0.005498605478765056,-0.00027141947058816084,-0.004470539573909558,-7.292970074259074e-05
3.7699999999999996,-0.0033733893847056606,0.002961402385551537,-0.10027734803361454,-0.00020225238963433867,0.00934866400024248,-0.005168014441636615,-0.00027601642867214343,-0.004881011006388824,9.05780094662134e-05,0.0016854649727906512,0.00010199895827654549,-0.10003332873598143,5.33275056065231e-05,0.0026189328082377645,0.0060104949424185025,-0.0003192119002665797,-0.004564427376998522,-0.00012730027374126997
3.8000000000000007,-0.003166524813423166,0.0031260683807943224,-0.10013389876257861,0.004509299714868575,0.006874513585245268,-0.0015397490772457445,-0.000253578772361429,-0.004777506281822939,5.2828276084326824e-05,0.0016848814858754224,0.00016413492612969995,-0.0998563902026891,-2.600488446865356e-05,0.001928402906560086,0.0057683197479853725,-0.0003236569692164392,-0.004655549990374744,-0.000185371710830816
3.835000000000001,-0.003006082676620281,0.0033680840167420456,-0.1022137598606605,0.00464466461187385,0.006955475734685024,-0.0015974702399432772,-0.00022621130882161114,-0.00465271739950124,2.44793223966866e-05,0.0016913157373716905,3.934438547287508e-06,-0.0996649925035616,0.00019708263945330233,-0.004214954264127736,0.005294208668768401,-0.0002725115083887762,-0.0047757999284843535,3.0158549116053495e-05
3.870000000000001,-0.0031679756748417276,0.002096465410232895,-0.10209341889139978,-0.0017677824442330348,-0.02330549777525448,-0.0023412997314835593,-0.0002267342085482404,-0.004582913172757496,2.8087072085902776e-05,0.0016923376099473586,8.144310148389012e-06,-0.09953565482505723,3.5536221913599496e-05,0.0007621342088917178,0.003504774345060096,-0.00030935696199291696,-0.0049490277451490275,2.2773503730943507e-05
3.8999999999999986,-0.0032207267859121202,0.001389842164797983,-0.10070503469069081,-0.0017736998889859024,-0.02380138887644989,-0.0023973323299628646,-0.0002686127241506852,-0.0045115691930375235,5.6915200362439584e-05,0.001692463864738869,9.45355516324494e-05,-0.09941238615211272,-3.6294439677184553e-06,0.0032417005479719865,0.00391143185888162,-0.0003414927336787088,-0.0050476554369110445,-8.30129547428848e-05
3.9349999999999987,-0.0017886462105707324,0.0015848407609553306,-0.10176890514503611,0.028758239344597314,-0.0031645893670173564,-7.500950008543228e-05,-0.0002573622466037762,-0.004409128856728285,-2.3712653241858568e-05,0.0016989081024982864,4.705677971690366e-05,-0.09926060850509542,0.00015688658617166282,3.893547881962363e-05,0.003810881013509782,-0.0003190356200776619,-0.005094989609648906,-1.756197360688072e-05
3.969999999999999,-0.0007708847615504055,0.0014718003010329994,-0.0983339791328035,0.029399448969570585,-0.003292908676002071,-8.516760258148182e-05,-0.0002672905231340117,-0.004347145735585034,-7.944335118237335e-05,0.0017019968932880933,3.362338759958993e-05,-0.09921957009646344,0.00010696505835846758,-0.0005206168565903732,0.0006898702479518451,-0.0003198634278629167,-0.005215606102710584,2.5680546226925366e-06
4.0,-0.00111567757312514,0.001521470210178677,-0.0991090903339682,0.004917755485848829,-0.0003581651230444294,0.010569394140304667,-0.00024237199771581777,-0.004347456524756319,-2.8305585229482226e-05,0.0017080729229199676,-4.080748454386695e-05,-0.09919936749844874,0.00024550253253497205,-0.0035395149525337443,0.00035952268824978684,-0.000298241654694194,-0.005275442129797111,9.392115150951774e-05
4.035,-0.0009437224002795119,0.0015079597305316383,-0.10022213936508706,0.0050013434918696476,-0.0004186612932191025,0.010782765154772278,-0.0002289521598588528,-0.0043297339146466385,-0.0001037629743754209,0.0017122642170521731,-2.7140056340299106e-05,-0.0992651510204119,0.000137325526017449,-0.0006267731161616304,-0.0022809150308888025,-0.0003274063005826405,-0.0053723912557482965,6.84144258970221e-05
4.07,-0.0022519949657180405,0.0018739563398639802,-0.1012337343577201,-0.02211135029710931,0.006508471264083937,-0.0003969594357258188,-0.00021524668649375298,-0.0043460909887422785,1.1127911706321212e-05,0.0017208334309883888,-6.844428452930886e-05,-0.09932936670375239,0.0002479596609509028,-0.0010768444067500815,-0.0020819676865291865,-0.00032084261303053487,-0.005381006244340112,0.00010758855523847126
4.100000000000001,-0.002921720637459657,0.002070330483803673,-0.10043334205420251,-0.022540489269886166,0.006585290692157741,-0.00041468016851098355,-0.00025828698349483753,-0.004395573502140594,-6.073131060269076e-06,0.0017279748098220082,1.1958241149665093e-05,-0.09940738315074461,0.00019458831754469945,0.004352856481727266,-0.003050508753078576,-0.00036558575362876094,-0.005359418289581895,-3.4588107655558813e-06
4.134999999999998,-0.003124459819900949,0.0024684302288733306,-0.09856865805977577,-0.011558389914625877,0.009866687010003261,0.010167022539519621,-0.00023171102000141275,-0.004483333941630363,-5.984342001674748e-05,0.0017388416633226092,-0.00010397861079126583,-0.09953683693475185,0.00027599569524047827,-0.003008040423582236,-0.00400888812262631,-0.0003037997179557415,-0.0053133061875118145,0.00013125423086969644
4.169999999999998,-0.003535221817855927,0.002816590513191386,-0.10021329412120394,-0.011822020340446215,0.01002220915381713,0.010352392622962725,-0.00026793873072428193,-0.004570176972324091,-0.00010592019420041507,0.0017485080763015575,2.8321151039703573e-06,-0.09970810663439009,0.0002483511426860642,0.0036391063061215934,-0.005002460339650633,-0.0003572293175736147,-0.0052650326376122575,-1.3535961946629467e-05
4.199999999999999,-0.0033724801292009943,0.002757244907598988,-0.1003662627108497,-0.0016531737036871164,0.0029458219295577237,0.009499412476316138,-0.0002753157315713572,-0.004649656186680228,-0.00013537995372070455,0.0017593058205358503,2.9590203726443914e-05,-0.09983228433532244,0.000362826297044648,-0.00040223031411760026,-0.004086738958387364,-0.0003360656596814815,-0.005162697814544688,-4.40083470386653e-05
4.234999999999999,-0.003432591500768467,0.002860426719166753,-0.10022114577532193,-0.0016920936202353687,0.002945501969136899,0.009665999545518389,-0.00028241335566114856,-0.004766008332064865,-3.4116436238296195e-05,0.001771010017987073,-4.973596630782593e-05,-0.10002910137729563,0.00032923788351217517,-0.0028710863795210722,-0.00527969105314337,-0.00030828856496067865,-0.005085813535922167,5.7096216154298735e-05
4.27,-0.0026891326974691765,0.0020260450108651185,-0.09918478613826665,0.01294679577097213,-0.014178379381576178,0.0028705143034386538,-0.0002895599158589946,-0.0048763661038231385,-5.669076998549019e-05,0.0017840859133824154,-7.654386686691521e-05,-0.10019220672038281,0.0003362206635121709,-0.000991412005387785,-0.0046383110740677615,-0.00031511667738633674,-0.004961152880857695,8.196083288235547e-05
4.300000000000001,-0.0022976046211624634,0.0015959087167232155,-0.09936450869417968,0.013186141791379669,-0.014496801975781182,0.0028869826278707933,-0.00027874247300552213,-0.004955150691741129,-8.055756876279574e-05,0.0017948695509550916,-1.2694980698036055e-05,-0.10033106990737668,0.0003325133808175766,0.00441173439752787,-0.004444621818549174,-0.00035866248383472396,-0.004862996198727724,-6.885137127441064e-06
4.335000000000001,-0.0018997916786247515,0.001185578295491041,-0.0992628913113549,0.012230299381826626,-0.01297476086028837,0.005378585781386391,-0.0002704243945439444,-0.005013089535110815,-9.130666383860842e-06,0.0018079550132168447,-3.4110485050921836e-05,-0.10045506155768452,0.00036932011653089135,0.001592673801655859,-0.0029778005151579376,-0.00033275099932795956,-0.004730763490334429,1.2657909135066137e-05
4.370000000000001,-0.0014682886662740202,0.0007257171037622356,-0.0996922440808703,0.012482748792535858,-0.013305175956077164,0.00545249001834236,-0.0002896554901550274,-0.005071053136363358,-3.0055855984034714e-05,0.001818649867408429,-5.037566778550411e-05,-0.10058260207928396,0.00027818580724070215,-0.00046195270088391824,-0.0033794977340814874,-0.0003131293102687371,-0.004650296510485835,2.8151305075845095e-05
4.399999999999999,-0.0013161235565348761,0.0007577545749768433,-0.09927585444393117,0.008489691619615769,-0.0054554204958208175,0.002674680102217053,-0.00022088033843825625,-0.0051087127428908205,2.709532114453239e-05,0.0018274950462533468,-0.0001078968309264567,-0.10065164004993021,0.00026005377933074165,-0.003102397052812075,-0.0018696322518050115,-0.00028643082246220143,-0.004572401816751313,9.395595334005221e-05
4.434999999999999,-0.0010165985295316204,0.0005640866867508976,-0.09926458963991536,0.008653040311401128,-0.005613692902528555,0.0026881111937768765,-0.0002926603759032531,-0.005135559377490218,4.061106757058397e-05,0.0018382107258578797,-2.9533136833533534e-05,-0.10068929474586182,0.0003066730813034765,0.003189542062442865,-0.0005651884197129098,-0.00033073234222863544,-0.004495926050184001,-1.366064605481494e-05
4.469999999999999,-0.0006110417039053573,0.0007149935737231772,-0.09827938752414411,0.010602079250816132,0.000485023933801898,0.001007646135633422,-0.0002707421268524079,-0.005146666075749095,-1.5858042831773386e-05,0.0018494603945908845,-1.1966082282851933e-05,-0.10064743760101774,0.00028573557938316657,0.000725392187014429,0.001277998651949254,-0.00031343874232576946,-0.0043941795143854065,-3.552648268061038e-05
4.5,-0.00029056081893941155,0.000729185267516641,-0.09935473453924715,0.010773913921411804,0.0004609298656994554,0.0009872595927120642,-0.00028820964119180564,-0.005175167078554921,2.96775289632123e-06,0.001855968183511969,-2.424401710869175e-05,-0.10061866091633957,0.00020700793108475134,-0.002312756130440494,0.0014169173230396768,-0.00028284928752357955,-0.004375653325215552,-1.5737452007060065e-05
4.535,-0.0003900954111486499,0.0007738586683672111,-0.09948778217358267,0.0021987295405381246,0.0009633993062365676,-0.002194532074739186,-0.00025503402926574387,-0.005150597608017282,5.8006884078309895e-06,0.001862113377193886,3.51506372797842e-05,-0.10054792739940326,0.00017061141927773578,0.002555707306530842,0.0024683013158482026,-0.00032025991418872736,-0.004380197040195659,-8.424868151017702e-05
4.57,-0.0003125481034658151,0.000807271887083516,-0.09953311272238352,0.0022098326222135256,0.0009467389950792438,-0.002283877356731523,-0.00026930921123469176,-0.005075454300707883,0.00013630798995079024,0.0018690580638884846,2.350767061010069e-05,-0.10040477490334679,0.00020702581491220884,-0.0014516520006656159,0.004447477774008289,-0.00029281357552781145,-0.004359193598076922,-5.7420990644833854e-05
4.600000000000001,-0.0004976771383553569,0.0012428665111769988,-0.09954011100580828,-0.002463720502561273,0.00853345693974461,0.001535961475070735,-0.00029109197795129665,-0.005022315346932427,7.122680474802581e-05,0.0018725444871554586,-8.888080236079016e-05,-0.10029047571576694,8.601803758434186e-05,-0.003454476342768116,0.0037265186051463244,-0.000265158584391226,-0.004397995317450917,8.460376794266664e-05
4.634999999999998,-0.0005856896268596756,0.0015440399400290516,-0.09989477469480335,-0.00255040354923608,0.008675518547420324,0.001527711681319488,-0.0002589494801816805,-0.004912862158385156,-8.778775492324087e-06,0.001875027754203229,5.315824668632951e-05,-0.10014669340022217,5.675471854065773e-05,0.003361149452986748,0.004196317183468688,-0.0003228852212044073,-0.004474212114478278,-9.246971579144573e-05
4.669999999999998,0.00044602735670196125,0.0012908421795714276,-0.09999045660470074,0.016467266191739327,-0.0007074999627434408,-0.002513048808680196,-0.0002595403425158515,-0.004793804723854045,4.561205132258551e-05,0.0018773629855237672,1.756454327650151e-05,-0.09998991254496832,6.741401873499846e-05,-0.00041648661773082416,0.004526265229818362,-0.0002939834965241245,-0.004560800044312384,-3.9646614295129304e-05
4.699999999999999,0.0009447207748962683,0.0012687451066426547,-0.09942661466266145,0.016754884857391517,-0.000766171850948183,-0.0025930729543119924,-0.00031652810874494,-0.0047333359186945145,2.9399497324167353e-05,0.0018769816659895966,0.00011392417811590762,-0.09985580049128036,-2.165266361122201e-05,0.0026929421966285037,0.004408277515128816,-0.00032427643702053084,-0.004645668683926978,-0.00014896053889239255
4.734999999999999,0.00017566122869538958,0.0018227925887401852,-0.10191893791170514,-0.0058582322663482955,0.008979955514519133,0.0006364435905830135,-0.00025530778969384837,-0.0046561694849986965,-3.079173409137326e-06,0.0018796751104215301,1.7034200665451134e-05,-0.09970417166021012,0.000111883381194907,-0.0035116832278646913,0.004205577118484231,-0.00027677117433656155,-0.004746122299439397,-1.1826527608886598e-05
4.77,-3.24434968206333e-05,0.0021396585721618067,-0.10164716313784083,-0.006026773971086641,0.009127087992453653,0.0006100406217335319,-0.00029070558119626,-0.004560324764365743,9.83989611915703e-05,0.0018799388149686178,4.2156974067734194e-05,-0.09958515295695107,2.596010224373121e-05,0.0008597946625900368,0.003348003236719693,-0.0003138241174961013,-0.004867047822353729,-3.693900260601745e-05
