t,x,y,z,vx,vy,vz,roll,pitch,yaw,gt_x,gt_y,gt_z,gt_vx,gt_vy,gt_vz,gt_roll,gt_pitch,gt_yaw
0.0,0.0,0.0,-0.10231179009315383,0.017006245559059607,0.018922904057831147,-0.02359293446272659,-9.327350249899169e-05,-0.008075486985517076,-5.312367961840536e-05,0.0,0.0,-0.10184607107894748,0.002217017523701522,2.5790803590627134e-07,-0.024497071311563715,-1.0258279293681192e-05,-0.00819795532811487,-3.4608968058267913e-06
0.03500000000000014,0.0006080259245209163,0.0006669285266980296,-0.10150456141855102,0.017365206015256263,0.019193643606513433,-0.02421361632912067,-0.00010046410848563166,-0.0073853999146615825,-5.038809435076174e-05,8.55423240409014e-05,-8.051956592114758e-12,-0.10265655985727938,0.0022795789105983766,2.375715476907252e-07,-0.022371903907382685,-1.0228257533415598e-05,-0.0075102147093402145,-3.465044528674771e-06
0.0649999999999995,0.000211918760669505,-0.000577416697069566,-0.10331257141933747,-0.001217486455004746,-0.0178074428289392,-0.019047703444698527,-9.530066204233023e-05,-0.006789691788799512,-5.1535025112237065e-05,0.00015881621180025221,-1.307940556293333e-11,-0.10327273328500662,0.002298094049098275,2.0755977772134882e-07,-0.019562542518402067,-1.0202371022419612e-05,-0.006908314175587874,-3.4685791122581326e-06
0.09999999999999964,0.00017305259780187043,-0.001209573344567616,-0.10384968773541914,-0.0012520152978225951,-0.01831219257030625,-0.019556325256530727,-8.82889072526538e-05,-0.006104544084654774,-5.020436313785126e-05,0.0002428400397116448,-8.01042912729698e-11,-0.10386925117996398,0.002275504817453945,1.624577444215992e-07,-0.015388767835610865,-1.0172390418836644e-05,-0.006223390789031147,-3.472526452496717e-06
0.13000000000000078,0.0006355892655847128,-0.001391814590760987,-0.10408524260765262,0.008906499339445872,-0.01112226335919786,-0.010168361152125271,-9.133142727213439e-05,-0.005565067572431469,-4.91042784633855e-05,0.0003122041273364613,-1.5522854355621163e-10,-0.10425448079862638,0.002217975375105235,1.2611517738476553e-07,-0.01191144217763923,-1.0149425606010948e-05,-0.005680735136730813,-3.4755906388240732e-06
0.16500000000000092,0.0009526207245471596,-0.0017869736227567046,-0.10406390166599522,0.009101313795781607,-0.01145542519486753,-0.010458629080346782,-9.491935524819083e-05,-0.005004934712982135,-4.4152257989704686e-05,0.00038963973929174084,-3.019354213182259e-10,-0.10458699347998908,0.002124862396177679,8.489276308163408e-08,-0.008152644803850192,-1.0125539845435895e-05,-0.005110116498352931,-3.478757372652481e-06
0.1999999999999993,0.0013556402441281534,-0.002053144729188716,-0.1035397228556576,0.010805095986825108,-0.009203388445541805,0.0016560933082629958,-9.66533315427398e-05,-0.00453784818515368,-4.7693136627557906e-05,0.0004626648405414713,-5.640993297149261e-10,-0.10479588335708365,0.0020123189168881816,4.473763979977715e-08,-0.0046265797505048245,-1.0104209994798631e-05,-0.0046202131132503195,-3.4814400915428766e-06
0.23000000000000043,0.0016824797712615691,-0.0023328268539444252,-0.10460449360698476,0.010999889256481765,-0.00944127508978454,0.00162612086424474,-9.307534773084214e-05,-0.0042026132512802405,-4.865167863110642e-05,0.0005210834432949374,-9.245833535920087e-10,-0.10487167876662594,0.0019059895460365862,1.1092345662826027e-08,-0.0017403549155883542,-1.0087480941518425e-05,-0.004277648987605226,-3.4833121851379044e-06
0.26500000000000057,0.0017000601387735514,-0.001735002259920293,-0.1036403924899787,0.004073383129480135,0.008306721985150034,0.006539595831270617,-8.93971785131953e-05,-0.003899454817288372,-4.99192887049027e-05,0.0005848982539102836,-1.4921207839668184e-09,-0.10485961334161881,0.0017766904868057641,-2.7293372799804757e-08,0.0015321620972361615,-1.006899140688893e-05,-0.003958879785442382,-3.485093549964459e-06
0.3000000000000007,0.001843158767769637,-0.001442594515538076,-0.10507365086095888,0.004152890555303657,0.00840146914390516,0.006601841039724832,-8.852643967660613e-05,-0.00368570176350147,-4.6105142044172716e-05,0.0006437821409210926,-2.23490371584171e-09,-0.10473736165972306,0.001644121118553259,-6.500014654519884e-08,0.00471156394195768,-1.0051056638980607e-05,-0.003732372218789024,-3.486455741973945e-06
0.33000000000000007,0.001596518789028778,-0.0009742758500124182,-0.10425015786177028,-0.0031804681847802385,0.012780905749309568,0.015657973136967485,-8.76813232482121e-05,-0.0035904284482755067,-5.3245328157203176e-05,0.0006898875962266806,-3.04159278222824e-09,-0.10453845197311419,0.0015290889918446423,-9.688251346986972e-08,0.007352661897303263,-1.0035578874513346e-05,-0.003620455210281322,-3.4872772243849392e-06
0.3650000000000002,0.0014818841827946017,-0.0005236284123384394,-0.10300953376236066,-0.003258882293721399,0.01296738198169578,0.015916050516921132,-9.020793083314158e-05,-0.003558800542130313,-4.82464214766054e-05,0.0007392691586669565,-4.1741037986530496e-09,-0.10421437551011291,0.0013948129850407595,-1.3370314044221284e-07,0.01034644998818866,-1.001683818591764e-05,-0.0035736206252875956,-3.4879009223962126e-06
0.40000000000000036,0.0024203882849178626,-0.001531879777303402,-0.10312578418597695,0.016000673163034662,-0.013708294424361611,0.009349178089792076,-8.751154950203953e-05,-0.0036141146989421276,-4.67418786733731e-05,0.0007837049069490141,-5.540239381016731e-09,-0.1037898185874039,0.001261685146323567,-1.6991214973362085e-07,0.013238981761291188,-9.996674426910527e-06,-0.0036215926811182875,-3.488170895363907e-06
0.4299999999999997,0.002903723266626912,-0.001948203915844715,-0.10289927282428835,0.016292176307388218,-0.014046759052689595,0.00944422387084387,-9.749696945693385e-05,-0.0037484438934667344,-4.7357988345542154e-05,0.0008174820925952453,-6.9330947226337414e-09,-0.10334048380237479,0.0011505591748920193,-2.0048509810871395e-07,0.01563319446409803,-9.977607164586953e-06,-0.0037464481585758984,-3.488106331173641e-06
0.46499999999999986,0.002436428578221239,-0.0013811340766096691,-0.10363187996563283,-0.002445518359735388,0.005095708712161695,0.019900390895372766,-8.929876552654648e-05,-0.003992789360625081,-4.952823731008138e-05,0.000852625187811152,-8.8008876405213e-09,-0.10273291443663342,0.0010256730999887932,-2.3569828686466635e-07,0.01834408221266648,-9.95302869746728e-06,-0.003976265852016427,-3.487743601088097e-06
0.5,0.0023466530901714577,-0.001202207960659507,-0.10216257851607224,-0.0025191978679401927,0.005124601071827328,0.020239424805254203,-9.959785521784781e-05,-0.00433194617641286,-5.0787742965852096e-05,0.0008830913760462522,-1.0950041065821572e-08,-0.10203468664112454,0.0009077622222073651,-2.691899791561873e-07,0.020929054433587006,-9.925478961867454e-06,-0.004299949206230225,-3.4870714466303484e-06
0.5299999999999994,0.002908490137087938,-0.0011141676734496286,-0.10169716990185407,0.009412563491082437,0.003913311635756145,0.02287528927342919,-9.489140776697266e-05,-0.00469414898339071,-4.752747371794539e-05,0.0009053882697633853,-1.2928113497834332e-08,-0.10137528758035909,0.0008185886538149671,-2.8450846880885426e-07,0.022261447784465493,-9.901470976734811e-06,-0.004655634139272363,-3.4862292230634364e-06
0.5649999999999995,0.0032371252727898536,-0.0009770935348569765,-0.10110520367243225,0.009592724035542233,0.003916043090072208,0.023252248116591545,-0.00010162481103703769,-0.0051817269774510075,-5.249612097291134e-05,0.0009282928098603987,-1.5300364013728884e-08,-0.10058633714568839,0.0007367384139155141,-2.8885501847188845e-07,0.022528907516299955,-9.87431032359686e-06,-0.005135551063273792,-3.4850104715174233e-06
0.5999999999999996,0.0031200744060697616,-0.001830365933756184,-0.0994671042212758,0.0020720875526194504,-0.012986205767276715,0.02466080422300365,-9.485464442304803e-05,-0.005724333813482917,-4.706345749161399e-05,0.0009487529934482097,-1.7715373634229498e-08,-0.0998177091076701,0.0006858322202899661,-2.7809160797101547e-07,0.021418076635417026,-9.847762293650619e-06,-0.005667431152753448,-3.483617570228193e-06
0.6300000000000008,0.0031779237751834444,-0.00222466200443705,-0.10032514294471184,0.0020803346471893747,-0.013304681954764419,0.024998661307790826,-8.653915929679458e-05,-0.006197738119370299,-5.322811626795598e-05,0.0009654049270091401,-1.9763834573250998e-08,-0.09921739503706563,0.0006717713903463366,-2.5629743222571574e-07,0.0193721464297702,-9.825464852374492e-06,-0.006142630658497389,-3.4823891004142e-06
0.6650000000000009,0.0028269090448702627,-0.0013287330277762521,-0.09992123248866847,-0.005341606799561305,0.010573351695711608,0.02246319035043598,-9.492050114001674e-05,-0.0067449108449948465,-4.610204796451357e-05,0.000985217643101556,-2.207145998955653e-08,-0.09861045130669194,0.0006838157790876101,-2.1983645731523136e-07,0.016038350048794437,-9.799844334551874e-06,-0.0066887254493011306,-3.4810398018059413e-06
0.6999999999999993,0.0026319376906940306,-0.0009563057342347747,-0.09949148304258415,-0.0054856259735629465,0.010703211066925178,0.022802280967198385,-9.78883468207847e-05,-0.0072413198686289695,-5.147477825051538e-05,0.001006665565316034,-2.4232207968881983e-08,-0.09813699201854903,0.0007242010421121017,-1.731318083546953e-07,0.011827561442015164,-9.774596179881812e-06,-0.007198370239159477,-3.4798920430480915e-06
0.7300000000000004,0.0032584118034719722,-0.0010362764662659174,-0.0981017469021026,0.009175296731541494,0.0033180406239097238,0.0113352440316703,-9.103377275287985e-05,-0.0076214575756998765,-4.2253770828004626e-05,0.0010275762670581847,-2.591038176917902e-08,-0.09787128998231298,0.000778787560536489,-1.267367153398837e-07,0.007668847436241508,-9.753206275130765e-06,-0.007577599223207006,-3.4791758731979615e-06
0.7650000000000006,0.0035792914809462673,-0.0009205743874645123,-0.10094182093098425,0.009338229031982337,0.0032922217077668847,0.01142969725748344,-9.100006226292477e-05,-0.007964446216685241,-4.621719750064201e-05,0.0010553467064289288,-2.7665977532116222e-08,-0.0977164268979814,0.0008575211691151332,-6.908926182028908e-08,0.0025018067327566423,-9.728446742154828e-06,-0.007941572750962566,-3.4786675694887272e-06
0.8000000000000007,0.002408182702765771,-0.00040392909727415827,-0.0978108436202092,-0.016162114324743015,0.010125729188473542,-0.003347715822130226,-8.918332966523226e-05,-0.00821080019444631,-4.766537815292793e-05,0.001087489514306485,-2.9183575533930248e-08,-0.09774166329812022,0.0009484422572359712,-1.036694206786912e-08,-0.0027681074199840047,-9.703793378719955e-06,-0.00820220373221694,-3.4785607812160247e-06
0.8300000000000001,0.0019190117131984152,-9.852606922322593e-05,-0.09923933218215097,-0.016508263869354778,0.010233453461921727,-0.003540768227637159,-8.441588141527845e-05,-0.008309146534899892,-5.309327043212518e-05,0.001119272342472667,-3.0267132900923266e-08,-0.09791861108783241,0.0010351617196995833,3.8001589158576204e-08,-0.0070792650639618995,-9.682658996495768e-06,-0.008323756102103487,-3.4788492819439606e-06
0.8650000000000002,0.0031959904117684346,-0.0007773944737436977,-0.09712571419640881,0.014510842868162399,-0.00720625894879845,-0.00835596133680383,-8.958245562284972e-05,-0.008329089336760022,-5.534341716373347e-05,0.001160826779440517,-3.1299133749391404e-08,-0.09826812898649759,0.001144715694219907,8.991541576371965e-08,-0.011608406944211778,-9.657974631556995e-06,-0.00835622338140513,-3.4795964909654108e-06
0.9000000000000004,0.003711164869400818,-0.0010341360498387075,-0.10057054828212131,0.014788493479500175,-0.007461580013938374,-0.008687925079584602,-9.270300661601283e-05,-0.008224946552109815,-4.653652311370494e-05,0.001207436326283509,-3.205335097549796e-08,-0.09875652894226199,0.001261000999100596,1.3420150536439964e-07,-0.015334685585996408,-9.633332687868705e-06,-0.008263547202608919,-3.480829832713503e-06
0.9299999999999997,0.0032583831948613806,-0.00033878200338222086,-0.09962090290855485,-0.0010044562916817767,0.008633027856490116,-0.020082408758071324,-8.662321493391187e-05,-0.00802135425345751,-4.701660469219603e-05,0.0012516204361849859,-3.246060584183538e-08,-0.09926813300157471,0.001361192387251908,1.6309903613641852e-07,-0.01764321067773273,-9.612228821230734e-06,-0.008077668579185193,-3.482306553739668e-06
0.9649999999999999,0.0032279373667734035,-3.527033459249651e-05,-0.09978968661243925,-0.0010572294587802844,0.008714119364526596,-0.020616926584466455,-9.040180457864366e-05,-0.007691667358410646,-5.072233116409918e-05,0.00130694941725973,-3.271870675724119e-08,-0.09992576229098535,0.0014717007837245616,1.8613766755833128e-07,-0.019336447771662258,-9.587631267581678e-06,-0.007763924846396911,-3.484406790566843e-06
1.0,0.00361694695220649,-0.001086637116941347,-0.10127688824968573,0.005962494602215429,-0.013973329083682984,-0.020566334828231447,-9.661634635893536e-05,-0.007271337306020697,-4.928906224677119e-05,0.0013658006312899929,-3.277405301990001e-08,-0.10061667255196916,0.0015674910324636304,1.9626668978104893e-07,-0.019857660422266474,-9.563053813701194e-06,-0.007357560322725286,-3.486855438204019e-06
1.0300000000000011,0.003801475220370776,-0.0015110760164134263,-0.10128536598176652,0.006045868206342675,-0.014317874707444389,-0.021015472161366233,-9.278632146125788e-05,-0.00685805617095836,-4.922226210224422e-05,0.0014183773564004941,-3.2699501375708086e-08,-0.10120148122113568,0.0016290085265012954,1.9332909099932982e-07,-0.019279338757649585,-9.54198994106725e-06,-0.0069496351128275555,-3.4891579329343814e-06
1.0649999999999995,0.004114121246857394,-0.0027853270044033707,-0.10284422998984155,0.007780329363299643,-0.027633357505919776,-0.01378117893716535,-9.288767123694086e-05,-0.006342284719611956,-4.9653631199131354e-05,0.0014807651637931422,-3.2552747001710784e-08,-0.10184213592261299,0.0016737722713023023,1.7864997344330034e-07,-0.01763096268734079,-9.517402997375194e-06,-0.006438562413503709,-3.491934020358208e-06
1.0999999999999996,0.004391681321521901,-0.003764466637676378,-0.10312644964687934,0.007912931701071102,-0.028313951730751796,-0.01413744416282725,-8.660233594826038e-05,-0.00581744871630896,-4.761581857026798e-05,0.0015431550272397843,-3.240291513068171e-08,-0.1024049176360156,0.0016838554237777077,1.5239421874136096e-07,-0.014990942547403971,-9.492796912905569e-06,-0.0059143951470365325,-3.4946927356499684e-06
1.1300000000000008,0.004153673889049969,-0.0031299716733883542,-0.10166766672000449,-5.917244501496555e-05,-0.0037225434649599265,-0.014020067863327768,-9.658528084610651e-05,-0.00538496479729167,-5.104474761008503e-05,0.0015954104253408405,-3.233313541283863e-08,-0.1027908008520435,0.0016600394387864463,1.2135611383011167e-07,-0.012000067512187603,-9.471702832968661e-06,-0.005480796531987617,-3.4969263762490356e-06
1.165000000000001,0.0041533884036653035,-0.003262571300865602,-0.1033573908107428,-0.00010369037539081916,-0.0038518688371311782,-0.014378840902395496,-9.746448431968703e-05,-0.0049334315579940835,-5.606244945521866e-05,0.0016540530890620834,-3.233377478737118e-08,-0.10312461219939302,0.0016010548785362262,8.164763686498205e-08,-0.008105891760172838,-9.447686691142147e-06,-0.005014742572517525,-3.499302136437351e-06
1.1999999999999993,0.003451692757607816,-0.003123605632708859,-0.10335072584484806,-0.01118105160082905,0.0003964099374833552,0.001042113345420148,-9.344555409374067e-05,-0.004535301901793963,-4.777101051489651e-05,0.001709280661772894,-3.240063159264498e-08,-0.10332768402315783,0.0015144541909226797,4.3827825432517735e-08,-0.004393047644329266,-9.425742069170628e-06,-0.004611050424253576,-3.5013396289665247e-06
1.2300000000000004,0.003112604757916415,-0.003112185395366396,-0.10399019368696827,-0.011415961331181279,0.0003636308130925414,0.001008429300725311,-8.416118481546776e-05,-0.004259140296002162,-4.6293598732205517e-05,0.0017531068813121413,-3.2552586395945585e-08,-0.10339437744005392,0.0014254479738707534,1.2369082290094927e-08,-0.0014118421877039144,-9.408439104540598e-06,-0.004331036874469813,-3.502749012335805e-06
1.2650000000000006,0.004491582301852759,-0.0024587255679762166,-0.10485987238052985,0.017698521296551917,0.010896356474063396,0.0005642397602585447,-9.35893484430572e-05,-0.0040201428171591225,-4.7028622986999835e-05,0.0018004301887937235,-3.284964128569091e-08,-0.10336930336123039,0.0013131321826870674,-2.3558496203073298e-08,0.0019265113387330274,-9.389179660615157e-06,-0.0040768482982569245,-3.5040605432598356e-06
1.3000000000000007,0.00511696165358444,-0.002074171140748149,-0.10485769348406393,0.018040918637780123,0.011079845411359202,0.0005204729854817458,-8.584896369923101e-05,-0.003870210579168366,-5.0773258489122966e-05,0.0018433267150053132,-3.330096865282789e-08,-0.10323261973719891,0.001194897216281386,-5.879124633411767e-08,0.005133593920255272,-9.370354056950665e-06,-0.003907649042566278,-3.505014761244783e-06
1.33,0.0045444459246937186,-0.0022177187249781127,-0.1041336151761243,-0.0004243559572039146,0.0031979445956551444,0.009905847634115617,-0.00010064213256955056,-0.0038199225712518543,-4.299657521045219e-05,0.0018761017162574065,-3.3845411080662416e-08,-0.10302104022052117,0.0010906404395268948,-8.852495322362845e-08,0.007775388265361211,-9.354002803824175e-06,-0.0038400732154960137,-3.505530255015055e-06
1.3650000000000002,0.004527279105786874,-0.002105537393845225,-0.10204108719517535,-0.0004809598535047144,0.003210437213141404,0.010055212968552496,-9.36179260304648e-05,-0.003826319795781074,-4.442663543624547e-05,0.0019102612943278094,-3.466278689079894e-08,-0.10268250967928236,0.000967954690273833,-1.2284649790772062e-07,0.010753962464560821,-9.334106297203635e-06,-0.003841210192201403,-3.5058369167708034e-06
1.4000000000000004,0.004255323890902218,-0.002024804440452499,-0.10180265794861043,-0.004514663946793007,0.0027169522040821903,0.01846595084089131,-9.06472656527768e-05,-0.003923351348328552,-4.5287536353466606e-05,0.0019398191142485656,-3.570399774330697e-08,-0.10224427108242977,0.0008459358767550502,-1.5650255289346936e-07,0.01362053009999935,-9.312661183852767e-06,-0.003933592470964535,-3.5058308574825187e-06
1.4299999999999997,0.004115846025797509,-0.0019432158694598911,-0.10299304815089272,-0.004635690095199152,0.0027184411631253624,0.01873502976116015,-8.827744904316151e-05,-0.004102237506034889,-4.527589133695998e-05,0.001961157448878037,-3.677915581192512e-08,-0.10178707822077729,0.0007449937440506786,-1.8120655181732147e-07,0.01579061535155707,-9.29309114322088e-06,-0.0040932437880392535,-3.5055589206411938e-06
1.4649999999999999,0.004402686678531609,-0.0014459336534855538,-0.10062018929329497,0.0023785495302206527,0.009055652792824276,0.01803765702209148,-9.689625846132087e-05,-0.004381902322519337,-4.999325685117739e-05,0.0019823265922565008,-3.8141473309543796e-08,-0.10119524053948704,0.0006382343410613948,-1.9968760568818367e-07,0.017426624078183604,-9.270546454866784e-06,-0.004355622214112646,-3.504980429247409e-06
1.5,0.004483331976643967,-0.001126481580286054,-0.09902871427311766,0.002393546096669752,0.009195621736353132,0.018346247370345736,-8.476802093060344e-05,-0.004725487808004747,-5.133092051234912e-05,0.0019999231469336465,-3.9596154759605736e-08,-0.10057030004522657,0.0005517748562936072,-2.071203663190226e-07,0.01797781080548986,-9.248581428373216e-06,-0.004691907368275035,-3.5041440509494926e-06
1.5299999999999994,0.004260355454789533,-0.001272566968054889,-0.0991751070519058,-0.0023341230008782077,0.002415929772539016,0.022942467470784322,-9.12889670363626e-05,-0.005066267235991796,-5.477068740722403e-05,0.002012727945208681,-4.0896939229218513e-08,-0.10003922431480707,0.0005006129291017831,-2.0382055769963446e-07,0.017510426013093095,-9.230134176169065e-06,-0.005027975238477961,-3.5032685551488215e-06
1.5649999999999995,0.004172968951024814,-0.00118796364336049,-0.0981466999701297,-0.0024167310467362313,0.002413879500252847,0.023330047177637425,-9.722266510836518e-05,-0.005483214392497881,-5.422970939683579e-05,0.002026358269704654,-4.242709533440101e-08,-0.09945548227351636,0.0004661998781912191,-1.9038066876767258e-07,0.016077338730413,-9.208910387561556e-06,-0.005447913428912399,-3.5021745969410768e-06
1.5999999999999996,0.00529903896358519,-0.000402037168669267,-0.09828781419810184,0.016321855867090562,0.013286174064830902,0.015122947724478308,-9.983096464871719e-05,-0.005914219064194536,-4.449074178980438e-05,0.00203955389481969,-4.392562586394005e-08,-0.09894030185553501,0.000459995561478504,-1.6710050671761948e-07,0.013743715275350555,-9.18798133648057e-06,-0.005877155773075539,-3.5010890958688108e-06
1.6300000000000008,0.005789992715108383,-5.009226242691511e-07,-0.09802058932427826,0.016592258639775537,0.013481563124116747,0.015301262128389226,-9.091676770101033e-05,-0.006268014751067864,-5.03673282481465e-05,0.0020515292479035283,-4.513775398732682e-08,-0.0985843883780182,0.0004773908159700334,-1.3990654435815861e-07,0.01108516407523876,-9.170259056018636e-06,-0.006230332622936441,-3.500253784874386e-06
1.665000000000001,0.005300157601595856,-1.3619650189866661e-05,-0.09806346131335886,0.00022320939939390883,0.006109704363552737,0.012709056598623647,-8.350601982387569e-05,-0.006635293614282829,-4.979360411105914e-05,0.002067085811688242,-4.644302489691651e-08,-0.09827484934709826,0.0005172084684013535,-1.0263345129294932e-07,0.007479564499717187,-9.14976077712588e-06,-0.006606761964885262,-3.4994470144533998e-06
1.6999999999999993,0.005304191925461055,0.0002013894552419515,-0.0963745718422615,0.0001799209189581319,0.006174210386518553,0.012869667856648448,-9.033526074553319e-05,-0.006943474371597259,-4.69762467769641e-05,0.0020851888963884235,-4.7600054439587084e-08,-0.09809767568217001,0.0005750562289684842,-6.11824982321957e-08,0.00348769189627163,-9.129437245949402e-06,-0.006925211891957001,-3.4988812672441157e-06
1.7300000000000004,0.0058922334956150735,0.00032229601265498786,-0.0984768331027226,0.009201681578360876,0.005217111963645493,0.004281174154016298,-9.00085674273576e-05,-0.0071459712042618575,-4.9853715871073214e-05,0.002103555434383787,-4.844636726298587e-08,-0.09807002690322687,0.000636192607790317,-2.412427523085015e-08,-7.338565373038062e-05,-9.112092496236194e-06,-0.007132243888945078,-3.4986462946183394e-06
1.7650000000000006,0.0062159162835087045,0.0005056339862221648,-0.09947118815352951,0.00935598837861562,0.00525952455492984,0.004238970263571673,-0.00010050139744555153,-0.007293608217829205,-4.871730636724081e-05,0.0021282439211252066,-4.927824704166869e-08,-0.09816330330657094,0.0007159863325621618,1.854229050523254e-08,-0.004156158544317311,-9.09188519468525e-06,-0.007297169722752765,-3.4986480234467024e-06
1.8000000000000007,0.006479389676769642,-0.00018231490366815706,-0.09802107459790932,0.008487816355113864,-0.0073227561383077955,-0.007539129535274469,-9.156734792092892e-05,-0.007344505401832626,-5.002578265544954e-05,0.002156836992316615,-4.992915939008987e-08,-0.09839066877866626,0.0008038847978385809,5.846911016327444e-08,-0.007929544638808662,-9.071663452141605e-06,-0.007369186351419887,-3.4989775909294773e-06
1.83,0.0067373957672316465,-0.0004049374190344679,-0.09921688602707945,0.008601447052001276,-0.007516432476109003,-0.007783148046939914,-8.874580632767247e-05,-0.007323236607033933,-4.797329439876207e-05,0.0021848833019566536,-5.031931759183103e-08,-0.0986890824642898,0.0008841149037187423,8.845168786678879e-08,-0.010678833354123535,-9.054334828726685e-06,-0.007345528519830244,-3.4995632994134053e-06
1.8650000000000002,0.006464998033607117,0.0006315095786249003,-0.09972923314444415,0.00020441247399638485,0.011405615770172517,-0.014607614135343283,-9.84292917975971e-05,-0.007193703008786301,-4.5147168068471195e-05,0.0022210788595558037,-5.0599923317472245e-08,-0.09912131525563779,0.0009787666759364536,1.1740358917003015e-07,-0.01323775254620179,-9.034201090560363e-06,-0.0072328176606133105,-3.5005558509516124e-06
1.9000000000000004,0.00647504769904117,0.0010337200749290787,-0.0995515726517624,0.0001584263972098654,0.011580680389272402,-0.015014049679280106,-9.244537252994788e-05,-0.006968173013116362,-4.340217349163566e-05,0.002260888877046343,-5.069846780893938e-08,-0.09962379957632053,0.001069507096778636,1.3809176242707152e-07,-0.014959531534403162,-9.014123185362176e-06,-0.0070302212129895085,-3.5018731480163286e-06
1.9299999999999997,0.005185940985484194,0.0019299939231132157,-0.09817011386894592,-0.019580681088655183,0.020046744420824325,-0.010979648777720286,-9.12790462033186e-05,-0.006727443660295763,-4.535979446451676e-05,0.002297689561904903,-5.064745175932439e-08,-0.1000885323763209,0.001138074809973971,1.4765398565064066e-07,-0.01563210576353668,-8.996970378951112e-06,-0.006788264510314267,-3.5032411953445173e-06
1.9649999999999999,0.004495300460348517,0.00263769932712421,-0.0987493363768408,-0.020033938574215426,0.02039372211902446,-0.011301458957802879,-9.264209776738141e-05,-0.006378626020337562,-4.892714243442951e-05,0.002342648270632132,-5.048614951696517e-08,-0.10063689126616412,0.0012032377224531474,1.5018066921289326e-07,-0.01559093845200102,-8.977016704318032e-06,-0.006452016614445606,-3.5050131767247636e-06
2.0,0.005704774734113016,0.0017228609769972536,-0.10363823316811249,0.007169710381617733,-0.0028492746044008754,-0.01104484842352349,-9.209236342266891e-05,-0.005991076356557823,-4.878050639067765e-05,0.002389076924929512,-5.025190988345558e-08,-0.10116458927190292,0.00124685545181095,1.4310525864720466e-07,-0.014647486630788856,-8.957125306529656e-06,-0.006073025089782331,-3.5069057787386714e-06
2.030000000000001,0.005923594502291962,0.001635318157468646,-0.10222855681922738,0.0072880354119320145,-0.0029841178041323246,-0.011301472516265676,-9.281566083574333e-05,-0.005652775268382814,-4.914905134878467e-05,0.002429243601722588,-5.0032880795087365e-08,-0.10157181768492969,0.0012614708661383201,1.2917028902175946e-07,-0.013110571574197058,-8.940129445420673e-06,-0.005731073253164994,-3.5085482865291643e-06
2.0649999999999995,0.006097600145494653,0.001579475353082671,-0.10207781199369492,0.006172132341816905,-0.0023873380648922193,-0.01094826953789152,-9.490389894040163e-05,-0.005254009855393703,-4.547289131950904e-05,0.002475551577137748,-4.980215232362217e-08,-0.10197842931536012,0.0012536541199815025,1.0599733874920085e-07,-0.010683175388292786,-8.920362421846246e-06,-0.005335403770693138,-3.5104030006663945e-06
2.0999999999999996,0.006317544067314884,0.0014933967242996005,-0.10250691377177645,0.006283496180344628,-0.0025286512190803023,-0.011245699004405196,-9.505238154172702e-05,-0.004897454391334934,-4.841091986751423e-05,0.0025203468000958296,-4.963715485178852e-08,-0.10228899764519143,0.001217904001866298,7.641693141359777e-08,-0.007669888862128421,-8.900683276203191e-06,-0.004963033687334736,-3.5121148484557184e-06
2.130000000000001,0.006691882003906358,0.0018961447474339366,-0.1020824281708883,0.009056181042524258,0.004366996089288477,-0.00957250773188889,-9.283546645555418e-05,-0.004612766648109724,-4.6258372718099836e-05,0.0025565756129077876,-4.9587576985356026e-08,-0.10245567798540876,0.0011647064995212264,4.697509678799634e-08,-0.004726771318797837,-8.883886106711111e-06,-0.0046827174293967,-3.513391161463365e-06
2.165000000000001,0.0070133580661604356,0.0020491733198468864,-0.10232544364271234,0.009226516285252728,0.004380257759464712,-0.00983070125124641,-9.260058924676073e-05,-0.004348835809611095,-4.90727071142949e-05,0.002595997016443976,-4.963274817521919e-08,-0.1025416728345432,0.0010839284866577014,1.1601916013254686e-08,-0.0011460793552945726,-8.864630438272548e-06,-0.004409396648445315,-3.5146403797227557e-06
2.1999999999999993,0.007089560508575232,0.0027264037785244,-0.10232561174734656,0.006049723635442206,0.011489377400948797,0.004787825678619129,-9.730411476160937e-05,-0.0041597611658872324,-4.687337458797459e-05,0.0026317711677021904,-4.9782002035835287e-08,-0.10250735944359618,0.0009881978263671502,-2.24514229721632e-08,0.002294316517668632,-8.846213393736293e-06,-0.004206393760662208,-3.5155982702965498e-06
2.2300000000000004,0.007271751978805696,0.003073197090316171,-0.10146607358637993,0.006134847709802216,0.011629859401296017,0.00483630761408449,-8.460980059332712e-05,-0.004060949373045465,-4.545668110811363e-05,0.002658941214245038,-5.002623794680375e-08,-0.10237757716832535,0.0008981116349393387,-5.10633287350549e-08,0.005089448853608082,-8.830705000286799e-06,-0.00410079751998827,-3.5161570248834904e-06
2.2650000000000006,0.007054446151869342,0.003421685807097674,-0.10128694626064316,0.00018604095981800128,0.010930423221964247,0.013685621691706729,-8.709335748102728e-05,-0.0040307689186525044,-4.671139726752925e-05,0.0026869443919994578,-5.0453315794627204e-08,-0.10213001026304241,0.0007881346565921253,-8.352801208195586e-08,0.008193784092620506,-8.81238287326487e-06,-0.004050894584457064,-3.5165431039399223e-06
2.3000000000000007,0.007058627204060031,0.0038068593132720707,-0.10191360962789986,0.00016342481430164923,0.011076922582162751,0.013901838068363759,-8.980846393802366e-05,-0.004074114316127808,-4.9668579115813585e-05,0.002710730118096195,-5.1028716794973914e-08,-0.10178385710420348,0.0006766535092194175,-1.1138850287025533e-07,0.01087547228603265,-8.794027855531908e-06,-0.0040855536371182015,-3.516630462838001e-06
2.33,0.006411075237338082,0.003066004599304506,-0.10138391498821875,-0.009207831120761512,-0.0042726139171236355,0.01688383040118424,-8.807442418712341e-05,-0.004189630934180678,-4.014975991006864e-05,0.002727544084699663,-5.163295475258727e-08,-0.10141964171394492,0.0005861863566112371,-1.2939226887825587e-07,0.012563376869410099,-8.778500262295173e-06,-0.004187739008414817,-3.5164570223771112e-06
2.367000000000001,0.005943508762538713,0.002987798904825381,-0.10260643274589223,-0.012299481342480626,-0.002487779586651472,0.013068715697010362,-0.0001090781147352615,-0.0043864071166694885,-6.836976751767308e-05,0.0027447355601610385,-5.2484804707528136e-08,-0.1009213794972962,0.0004872441070702978,-1.4422338942838616e-07,0.013879500769764764,-8.759604565498455e-06,-0.004386488838445778,-3.5159973562609637e-06
2.4000000000000004,0.005531248725219484,0.0029035850618583936,-0.10243386386309794,-0.01256760681326341,-0.002619935633788373,0.013247714947738132,-8.848735925948148e-05,-0.0046427132944821805,-4.4307112549102357e-05,0.0027572192952929346,-5.332304848346575e-08,-0.10045299984260835,0.00041557581646391146,-1.4989991059985661e-07,0.014292587192717487,-8.743074742615022e-06,-0.004622762287887028,-3.5153916501593564e-06
2.4299999999999997,0.005148666066361329,0.0028232384377133712,-0.1016121281040796,-0.01281133255918121,-0.0027400779916888496,0.013416092248462519,-8.323325248804639e-05,-0.0048993492374731495,-4.873032118757337e-05,0.0027666242219481774,-5.41331042395189e-08,-0.1000300426354381,0.0003690909328731836,-1.480362380210311e-07,0.013956888644256836,-8.72828696886888e-06,-0.004878281950211859,-3.5147146683119773e-06
2.465,0.006595044385903748,0.005067525077947721,-0.10025134591114693,0.012629379927261652,0.028800596864243744,0.014327403325694377,-9.31810131103994e-05,-0.00522559328638117,-6.1024053947811296e-05,0.0027763889412932845,-5.5095897422242195e-08,-0.09956359386184775,0.0003355231242949835,-1.3871257235924932e-07,0.01286882846048712,-8.711220219966935e-06,-0.005201937834365274,-3.5138611188716136e-06
2.5,0.007039077563149476,0.006084993975719044,-0.09741290756619492,0.012896283769009642,0.029339190833297835,0.014558346540013645,-8.30858531939427e-05,-0.00556363809229543,-4.9407091345266e-05,0.0027856275792554896,-5.604433442014715e-08,-0.09914983443086653,0.0003251292803325242,-1.2199507863473668e-07,0.011066731102056152,-8.694337212177737e-06,-0.005536711698888741,-3.513003510539078e-06
2.5299999999999994,0.007001862335982878,0.004489720600076907,-0.09835915152507368,0.007158218408392258,-0.004971952651999345,0.011807240464804636,-9.60624588266512e-05,-0.005834750803874744,-5.141295182697902e-05,0.0027939260834100033,-5.681137717976237e-08,-0.09886177338025354,0.0003351971283459999,-1.0216615540900918e-07,0.008994435101370777,-8.680001408794012e-06,-0.005815140295201228,-3.512330688783981e-06
2.5649999999999995,0.007252438131672534,0.004312722261829549,-0.09877194595947003,0.007303074833373557,-0.005143778279318667,0.011950228010960018,-9.050781758945801e-05,-0.0061327733763012465,-4.803117134466461e-05,0.0028047349440203377,-5.763251065193057e-08,-0.09860841935941021,0.0003636720167115126,-7.475239111840554e-08,0.0061687026662340695,-8.66339841542292e-06,-0.006114730498919373,-3.5116626527819565e-06
2.5999999999999996,0.006645260520144802,0.004264241661530832,-0.09989342223980202,-0.004217148063162313,-0.0035041272250566635,0.0026837625418494326,-8.574117609905228e-05,-0.006384020381720479,-4.804749244069484e-05,0.002817443986679713,-5.835154996963456e-08,-0.09845910988919299,0.0004079740998358494,-4.4086289287262626e-08,0.003025721578284359,-8.646909700657527e-06,-0.006371367242145516,-3.511166164164724e-06
2.6310000000000002,0.007543295285814891,0.004649578554332477,-0.09961988488082307,0.02068161640612463,0.008408658498786522,-0.0015132771019183214,-9.138522930474123e-05,-0.0065457553472469945,-4.7932782333504065e-05,0.0028309911148560745,-5.8879679106653236e-08,-0.09842944023230775,0.00045814882372267895,-1.551665679282524e-08,0.00011690661386212623,-8.632348013372131e-06,-0.006546193916469765,-3.5109198739876583e-06
2.665000000000001,0.008254174962075922,0.004937561697033743,-0.0982713778098514,0.021113990781032044,0.008533803185343913,-0.0016399735483574318,-8.888012897623197e-05,-0.006672695800997275,-5.404903906214287e-05,0.002848331093907143,-5.934875133656953e-08,-0.09849374590469923,0.0005206426275449309,1.553462969499542e-08,-0.003028315584832436,-8.616401463128127e-06,-0.006680311125962727,-3.5108503251139143e-06
2.6999999999999993,0.007542216417732561,0.005072136465514632,-0.09985070977472787,-0.01075993408812792,0.004977374102622889,-0.002015067739947085,-8.541142874030072e-05,-0.0067302865171505735,-4.907110372220914e-05,0.00286921166742804,-5.970170492807703e-08,-0.09866509287840132,0.0005916748205890363,4.562616138390912e-08,-0.0060413231353163965,-8.599989635946874e-06,-0.006747188998812371,-3.5110195322563597e-06
2.7300000000000004,0.007216509105091973,0.005222091341693158,-0.09949800068443437,-0.01098285883904282,0.005018875538780776,-0.002132180212711887,-8.508918510585772e-05,-0.006719245126474593,-5.039394235906159e-05,0.0028899093708170133,-5.988480450589969e-08,-0.09889511073457588,0.0006562529727399795,6.825898000978574e-08,-0.00825824163105067,-8.585910623534811e-06,-0.006737869088027249,-3.5113880299688736e-06
2.7650000000000006,0.008047927625284501,0.005593925904122443,-0.09831219950638115,0.01571908580899617,0.009393385539169685,-0.010659100784096154,-8.493914266560762e-05,-0.006630821946346454,-5.0546827340181004e-05,0.0029168174150620016,-5.997492776444028e-08,-0.09923181724696503,0.0007320746640213486,9.042753775007611e-08,-0.01034652348963707,-8.569550484566294e-06,-0.006660359453345163,-3.5120420872686266e-06
2.8000000000000007,0.008606463798969344,0.005925153280941231,-0.09788055695435105,0.016055023501394317,0.009537432406659718,-0.0109739989532045,-9.458905211534585e-05,-0.006462613344530688,-4.5265887194556604e-05,0.0029466098750114984,-5.993254602574402e-08,-0.09962652598681426,0.0008044119685349022,1.0648893370703901e-07,-0.01178309754793736,-8.553290802238642e-06,-0.006512137198077034,-3.5129346442404233e-06
2.83,0.008996646876767045,0.006623652315738582,-0.09802054217152545,0.014171743423958105,0.018768722886306932,-0.010965146611169985,-9.055048089212647e-05,-0.00627837369905171,-4.367013541539677e-05,0.0029742998352251257,-5.979846298888992e-08,-0.09999412859131354,0.0008589048386469083,1.1419542986482128e-07,-0.012383178995367478,-8.539422274013564e-06,-0.00633094347341549,-3.513876287796043e-06
2.865,0.009500140427917358,0.007286456779866057,-0.09849583619916302,0.01446078065907841,0.019109366050088283,-0.011279103978267813,-9.438262097782867e-05,-0.006017167002436707,-5.67224679115519e-05,0.0030082563210069866,-5.956787553846042e-08,-0.10043027301194493,0.0009107537408397601,1.1674775049911307e-07,-0.012428348144108101,-8.523318237968105e-06,-0.006076232977506381,-3.515106469457572e-06
2.9000000000000004,0.009315768300439231,0.007159326779856201,-0.10024330492115041,0.0007619425822440462,0.0033608312763817594,-0.008529336509070617,-9.124744787358809e-05,-0.0057220060256169,-4.735766368035855e-05,0.0030434468548365973,-5.92829783574609e-08,-0.10085260509998192,0.0009458200288711093,1.1209469237144784e-07,-0.011752948334693812,-8.507303429501985e-06,-0.005786483581511229,-3.5164295444086234e-06
2.9299999999999997,0.009339890922092309,0.007260010215759394,-0.10114595899131018,0.0007491270982029619,0.0033531115779226184,-0.008742612911476044,-8.987916963043574e-05,-0.005461414970175049,-4.74406391570703e-05,0.00307398069873166,-5.9023376548651324e-08,-0.10118086525793427,0.0009583058896091651,1.0215663567663965e-07,-0.010588115083385821,-8.49365892814835e-06,-0.005523041914231353,-3.5175837918770554e-06
2.965,0.009284072491936968,0.007057438816218564,-0.10045704998310612,-0.0010325924179852564,-0.003446157853659315,-0.007901672090156353,-9.240104756047528e-05,-0.0051568941775217425,-4.068763382880646e-05,0.003109254796693773,-5.87358563990908e-08,-0.10151120876421152,0.0009537459016324709,8.52891191675325e-08,-0.00871525516700223,-8.47783062425923e-06,-0.005216385894108786,-3.5188913650664555e-06
3.0,0.0092484386104843,0.006934208161283095,-0.10291550735746569,-0.0010837298881938295,-0.003594162956446212,-0.008131158660660276,-9.136602396608853e-05,-0.004866975251841766,-4.842419700601398e-05,0.0031434379261998657,-5.8494636444676176e-08,-0.10176689664386866,0.0009276652652792066,6.335560350815651e-08,-0.0063649927726390915,-8.462090528728307e-06,-0.0049258806938964755,-3.520100407858519e-06
3.030000000000001,0.010020687753240054,0.0073531651180474,-0.10279070865317408,0.016657396636219346,0.007963856595836205,-0.0052362557194669535,-9.368833829404011e-05,-0.004647343438070716,-4.857451998896422e-05,0.0031711161300718178,-5.8354081604493285e-08,-0.10190806608851723,0.0008878312455548597,4.155870426189739e-08,-0.0040530942547617795,-8.448687312232017e-06,-0.00470567086385085,-3.520998726371491e-06
3.0649999999999995,0.010610398044264002,0.0076336894967425906,-0.1014414669098187,0.016991418188354146,0.008068866563235133,-0.005392731638750092,-9.089765170466893e-05,-0.004433117746405204,-5.2312679089894245e-05,0.003201237017718351,-5.8267969744018385e-08,-0.10198667689227234,0.0008264991879773612,1.441866483586724e-08,-0.001187818568293963,-8.43323532736372e-06,-0.004489598179105953,-3.521875855853238e-06
3.0999999999999996,0.01059170345615712,0.0072159781120717525,-0.10000844797741593,0.00492363925849304,-0.00591672501030871,0.00679984179905091,-9.21886847295994e-05,-0.004288766617623897,-5.0618510181621446e-05,0.00322851077859454,-5.827739182867094e-08,-0.10196561853742195,0.0007521008223977745,-1.3282108888090319e-08,0.0017246148589946085,-8.418002215726176e-06,-0.004328507003012684,-3.5225426620959685e-06
3.130000000000001,0.010739355430814612,0.007035898852109312,-0.10096238808228009,0.0049787884004786065,-0.006089307166831759,0.006884897492000164,-8.489893821073125e-05,-0.004211215069301666,-4.2152087865510155e-05,0.003249091719047749,-5.8373626385956906e-08,-0.1018618234856603,0.0006805400309681763,-3.6082722507310045e-08,0.004104333550381486,-8.405155547450966e-06,-0.004245490918967426,-3.522917693738817e-06
3.165000000000001,0.011272686440861435,0.006819720885687275,-0.1016958161067123,0.012427410735199373,-0.0062812132127874065,0.01161714409738579,-8.957964794387152e-05,-0.004183725192655974,-4.8708835360677945e-05,0.003270133834995194,-5.8577331348094104e-08,-0.10166157726591712,0.0005929496610425955,-6.043536845773573e-08,0.006613173654592009,-8.390395356385372e-06,-0.004207913062328478,-3.5231499782850236e-06
3.1999999999999993,0.011709778211297817,0.0065963746649231325,-0.10228302418909152,0.012648506369714596,-0.006482358695905077,0.011811481668019042,-9.120784491756241e-05,-0.004218272518292655,-4.8595474605672706e-05,0.003287827805591448,-5.8883927047660545e-08,-0.10138403160705338,0.0005051163104190391,-8.10937629757533e-08,0.008694496488286005,-8.37589403549674e-06,-0.004237878929026311,-3.5231512046805313e-06
3.2300000000000004,0.011092597891547484,0.006808229070202287,-0.10088404839416398,-0.007514230698518531,0.001687787453271028,0.015555932995084731,-8.649164119711726e-05,-0.004308870528779706,-4.1069816891781117e-05,0.003300191528131436,-5.9234283831933977e-08,-0.10109384198253742,0.00043435683818832485,-9.458615310530893e-08,0.009999080608431165,-8.363603965561179e-06,-0.004320727027182028,-3.522962828062131e-06
3.2650000000000006,0.01082313245478872,0.0068670954244680615,-0.10235734075240543,-0.007746618784835846,0.0016725280456313385,0.015830068833906807,-8.377349265753509e-05,-0.004475481359235812,-4.8131800026496314e-05,0.003312094578710179,-5.971636736363516e-08,-0.10072057970016339,0.0003608241953531008,-1.0508519294419295e-07,0.010973093149847736,-8.34940371350659e-06,-0.004469321539566011,-3.5225800408590493e-06
3.3000000000000007,0.010564111828898604,0.007053343817688074,-0.10194554114696075,-0.007625737523937914,0.004133981086994254,0.013672356450513234,-8.758217466953154e-05,-0.004676987885976924,-3.940461318574506e-05,0.003321607492559942,-6.026100896582552e-08,-0.10032758686348059,0.00030115517797984007,-1.0947848246825965e-07,0.011299923460391216,-8.335445571642417e-06,-0.004667591077579029,-3.5220451810211536e-06
3.33,0.010330486541533901,0.0071778672529489995,-0.10090508405164655,-0.007818703397902027,0.004164372853495024,0.013868499258535394,-8.881672062255319e-05,-0.004878447732282075,-4.3195794944494985e-05,0.0033282266304586194,-6.076395523735365e-08,-0.0999938109902346,0.00026473101629826296,-1.078246272478289e-07,0.011006064465616631,-8.323635455795756e-06,-0.004869757819960402,-3.5214960096003184e-06
3.365,0.010468220360053238,0.007683896853450278,-0.09979131916907136,0.0005154685212076515,0.011549508481436987,0.019383618764891253,-9.429347341516352e-05,-0.005143352890242259,-4.840984755727363e-05,0.00333502619701731,-6.1363390375709e-08,-0.09962676346339408,0.00023830309363199106,-1.0053595250737679e-07,0.01011279063095008,-8.30997931708389e-06,-0.005125144534256717,-3.5208126063678736e-06
3.4000000000000004,0.010481940205863793,0.008091560887123705,-0.09898001149667834,0.0004729576752602327,0.011741783698766994,0.019721109803185755,-8.843558273330389e-05,-0.005404735758772539,-5.1285408186441124e-05,0.0033414364553214786,-6.195238970229387e-08,-0.09930248726243025,0.00023002677269105034,-8.771050700579762e-08,0.008656070700728503,-8.296441792145966e-06,-0.005388723616691684,-3.520130381501829e-06
3.4299999999999997,0.00982225408188242,0.008638980115165396,-0.09993122864989346,-0.013297269093186515,0.015837287478802864,0.005765075256022101,-9.220989412428438e-05,-0.005625760620835418,-4.620828862522686e-05,0.003347246163149631,-6.24237938960122e-08,-0.0990780919409788,0.00023800782521200657,-7.260075938803843e-08,0.006993150271555618,-8.284934750310608e-06,-0.005607573827174797,-3.5195942319940093e-06
3.465,0.009349622569061466,0.009198222870736572,-0.0980200891349341,-0.013645942691709934,0.016117197117068827,0.005795315301980963,-8.668994363514315e-05,-0.0058567281580979005,-3.738508598427614e-05,0.0033549265436092495,-6.292116130437274e-08,-0.09888246128361584,0.00026081280585395645,-5.185760374401633e-08,0.004735468036996682,-8.271600161942148e-06,-0.005842753043325449,-3.519055568247849e-06
3.5,0.009153769467957318,0.009071241916444706,-0.09756768927763915,-0.008722378936340647,0.003589223085583626,-0.0038511636411726613,-9.224443211364175e-05,-0.006050640288061348,-5.01788506928058e-05,0.003364118338660127,-6.334496837501881e-08,-0.09876976455524929,0.00029646889643083666,-2.8627236047448587e-08,0.002233818859336535,-8.258308976167547e-06,-0.006043905019017719,-3.5186484003334365e-06
3.5299999999999994,0.008889819929208898,0.009178935185218506,-0.0979196268999658,-0.00892290540571139,0.003590181104925705,-0.004004550272611596,-8.878535570655546e-05,-0.006174104247103963,-4.635635438932086e-05,0.003373735701406755,-6.363121281373486e-08,-0.09875100054360209,0.0003357482521593373,-7.745178720580566e-09,3.0210241550889232e-06,-8.246943470264559e-06,-0.006176714191042823,-3.5184409422714013e-06
3.5649999999999995,0.009359909245176823,0.009712157095918883,-0.09950017993742222,0.005318697330608302,0.011097474657447037,-0.0026597917285897665,-8.378089967964188e-05,-0.006276682924339917,-4.6297007598283826e-05,0.0033869826054391265,-6.388127898583175e-08,-0.09880773795689557,0.0003879992634846552,1.6344116351988738e-08,-0.0025544820467376284,-8.23370319408866e-06,-0.006284939655952122,-3.5183560378267102e-06
3.5999999999999996,0.009548018100758782,0.010103385732918468,-0.09896694917097193,0.005395028542977798,0.011259475360986926,-0.0028050764562124186,-8.590809512520892e-05,-0.006315732805167507,-4.833737019893647e-05,0.0034026761156207286,-6.403357000125356e-08,-0.09894858392157402,0.00044567192232327176,3.8940929383933034e-08,-0.004924328991752352,-8.220472972050855e-06,-0.006336162927335776,-3.5184569123306955e-06
3.630000000000001,0.009591474473381822,0.010096766805872903,-0.09950200643879725,0.0031279475572318916,0.004687334458736814,-0.004796514893882886,-9.507160624888655e-05,-0.006301503148233412,-5.6455617868600434e-05,0.003418348982688003,-6.407620403395371e-08,-0.09913457046203797,0.0004976550163074267,5.586705982319366e-08,-0.006662055275974837,-8.209136972423555e-06,-0.006327647194818519,-3.518711485648369e-06
3.665000000000001,0.009702526241198939,0.010261211786655622,-0.09925450899754651,0.0031561210683435093,0.004710768424587286,-0.004978147797430665,-9.13941543587704e-05,-0.0062278685776182546,-5.2837808738548375e-05,0.0034388129200904074,-6.403919622837888e-08,-0.09940501938520689,0.0005580673655780907,7.221361986511183e-08,-0.008293903050912921,-8.195923901221502e-06,-0.006265572312129806,-3.519173720764707e-06
3.6999999999999993,0.010690497811992827,0.009631955169879802,-0.09913954761759669,0.019183038872597535,-0.009804841063441927,-0.011421305824740102,-8.425762727215513e-05,-0.006106048750394777,-4.128227636979175e-05,0.0034615421692061332,-6.390789280541755e-08,-0.09972062380731467,0.000615036194530708,8.415281590997302e-08,-0.00940777256415582,-8.182806621979475e-06,-0.006148440465207229,-3.51980816094952e-06
3.7300000000000004,0.011272797821220593,0.009334074352182142,-0.10007503328051826,0.019498991172440583,-0.010049957387593622,-0.011692190677081271,-8.563058953958702e-05,-0.005957226996919474,-4.508293416449761e-05,0.0034827057033650645,-6.372411892117907e-08,-0.10001355668572097,0.0006573955496358622,8.970885435301117e-08,-0.009860472922284277,-8.171666828278402e-06,-0.006006063333255604,-3.5204804484389793e-06
3.7650000000000006,0.01114654786306346,0.009357203832450978,-0.10140544326395684,0.004823595451966867,-0.0033435533471788403,-0.011147125140780645,-8.442467566682765e-05,-0.005754542066739531,-4.738496349165899e-05,0.0035086757218463225,-6.345767262353137e-08,-0.10036024762231359,0.0006971552570764696,9.131476923020081e-08,-0.00986888088903115,-8.158749509814165e-06,-0.00580656175300894,-3.521359451756999e-06
3.8000000000000007,0.011318351423142303,0.009237781037654713,-0.10142682058494756,0.0048665478304315,-0.0034781465734567973,-0.011441515263982183,-8.281121537079271e-05,-0.0055196177956244865,-4.619919894199852e-05,0.0035355906618406165,-6.315398078895466e-08,-0.10069504083851753,0.00072344048521794,8.747846357416416e-08,-0.009305785340332296,-8.145927732326787e-06,-0.005580243303334675,-3.5223039361835423e-06
3.83,0.010833411210114718,0.009740313399788647,-0.10122818621402985,-0.0069580681786192145,0.007834507499183019,-0.004534577047849098,-8.597815745670091e-05,-0.0053169057469779615,-4.632001787374663e-05,0.0035589293925641927,-6.288434148507407e-08,-0.1009544331005801,0.000732143170601851,7.970824260761418e-08,-0.008359230863457193,-8.135027859376014e-06,-0.00537496360441119,-3.5231258361563626e-06
3.865,0.010587094452603196,0.010016396051014453,-0.10148765587200614,-0.007166184691186572,0.007941792489532418,-0.004685050250827771,-8.700340574518962e-05,-0.005083393140404623,-5.284086747137096e-05,0.003585863597688866,-6.258487843517069e-08,-0.10121456294827864,0.0007274268246188975,6.654734973978201e-08,-0.006850203194540662,-8.122369595269313e-06,-0.005136493100255529,-3.524052874189985e-06
3.9000000000000004,0.010598411321552703,0.011708101794738468,-0.10184907599841608,-0.0028034932844889227,0.03224423326332726,0.002685377514836773,-8.81439261228856e-05,-0.004860623235002582,-4.429416208040494e-05,0.0036119220205108617,-6.232302058356745e-08,-0.10141476695596906,0.0007061489824021496,4.982602614428997e-08,-0.0049667755716874705,-8.109796889956063e-06,-0.004911179635335534,-3.524901364261838e-06
3.9299999999999997,0.010512590595681104,0.012683708448548714,-0.1030690543284436,-0.002895137440162898,0.0327954615715953,0.0026933937015627407,-9.04827198109359e-05,-0.004692155653778673,-4.977358493940542e-05,0.0036329727545072465,-6.214494847839489e-08,-0.10152400752630268,0.0006745249312565083,3.322293399134568e-08,-0.0031206425737288325,-8.09916970336065e-06,-0.004740957040438216,-3.5255262307843957e-06
3.965,0.010934466173239343,0.011926331577342353,-0.10339835070953995,0.006340347786647271,-0.0006521302683992758,0.0010828483753400064,-8.430692410366092e-05,-0.004531340738246127,-4.43200215602957e-05,0.0036558191232680675,-6.199512955215676e-08,-0.10158289119818832,0.0006262431185718083,1.2563275443440314e-08,-0.0008411234811836017,-8.08692935755964e-06,-0.004574694768730126,-3.526128789914632e-06
4.0,0.011157678002746252,0.011902570352049224,-0.1006594687555662,0.0064243213037684654,-0.0007052434531651386,0.0010795055145820243,-8.659488212847677e-05,-0.004413381454599464,-4.756343986578316e-05,0.0036764223829335307,-6.191724199020053e-08,-0.1015626867615234,0.0005679361702770865,-8.481007027170041e-09,0.0014661036201419628,-8.074871084010403e-06,-0.004451916973574699,-3.5265741992609183e-06
4.030000000000001,0.010346676322114945,0.0109554634198048,-0.10071451988915214,-0.012268807952523275,-0.018048055211806968,0.005119476136599133,-8.91366290920459e-05,-0.004356241778573634,-4.269895281971969e-05,0.0036918828435741355,-6.191750635138026e-08,-0.10147762077339814,0.000512031462351383,-2.576260163075133e-08,0.003343607762731853,-8.064703698978557e-06,-0.00439018626006416,-3.5268082469707793e-06
4.0649999999999995,0.009910938502798672,0.010316448493767894,-0.1019083909195615,-0.012584178418819647,-0.0184691873690781,0.005181251757875316,-8.640637457979493e-05,-0.004335029099473696,-5.258238677274818e-05,0.003707592536965843,-6.19872688218779e-08,-0.10131606285664758,0.000443822242850264,-4.4173369808137164e-08,0.005316944131740767,-8.053016882410614e-06,-0.004364869716346699,-3.5269274762853127e-06
4.1,0.01108952878985292,0.012076071297315139,-0.1003393876935661,0.014962716425884537,0.022424038079634556,0.016153326794551504,-9.016769759861988e-05,-0.004376591179360734,-4.1681607136467846e-05,0.0037206875649662408,-6.213463366531745e-08,-0.10109384037740024,0.0003756438473311491,-5.97311890231645e-08,0.006947768787625211,-8.041523910010654e-06,-0.00439257092042131,-3.526874836538246e-06
4.130000000000001,0.011540066884663247,0.012755022646615544,-0.10160859983534465,0.015214844549518602,0.022837768288923144,0.016405037299819014,-9.192050724360358e-05,-0.0044541653049754455,-4.462808123051333e-05,0.003729735307005822,-6.232494427499003e-08,-0.10086251303082931,0.0003209197404437189,-6.978674767671122e-08,0.007964724126018325,-8.031831790887338e-06,-0.004460938062362902,-3.526688022117265e-06
4.165000000000001,0.012199758428323548,0.013320902273790125,-0.10027202588526052,0.017608194514423303,0.01921687938568084,0.012784107357845187,-9.01622170119687e-05,-0.00458243085672816,-4.8125162810386264e-05,0.003738344143340067,-6.260314410805193e-08,-0.10056574822914216,0.0002641044194067901,-7.769291311531575e-08,0.008715532174751486,-8.020651974252243e-06,-0.004581008387810495,-3.526346607802023e-06
4.199999999999999,0.012819927801501763,0.014000373461840354,-0.09960255115811378,0.01794843416905678,0.019609526711633407,0.012998823909754265,-8.504626214378419e-05,-0.004747090232180008,-4.819543606471299e-05,0.003745111765922182,-6.293132451637403e-08,-0.10025415405526228,0.0002178403529056682,-8.087805910734564e-08,0.008949559928390916,-8.009566131766042e-06,-0.004739507146730904,-3.5258960592208115e-06
4.23,0.012700388570010546,0.013728979602774416,-0.0994857810906069,0.006484232906700527,0.0045923023318721334,0.0058993469150436795,-8.570237379279534e-05,-0.00490403714964316,-3.964167594494584e-05,0.0037497362000817884,-6.32384721730887e-08,-0.09999029533309037,0.0001895608239726192,-7.940807540626775e-08,0.008694157267584782,-8.000160952544407e-06,-0.004900139548980358,-3.5254474561322527e-06
4.265000000000001,0.012928118075251405,0.01389117897883807,-0.09718324029790892,0.006587795585573986,0.004675778686021204,0.005980793483161051,-8.644889706976856e-05,-0.005113592775299215,-5.375143042796183e-05,0.0037544335024588538,-6.360531641317694e-08,-0.09970098129967099,0.000169065326403687,-7.363033833335054e-08,0.007960023980495761,-7.989274149966775e-06,-0.005102343585961822,-3.5248963207648594e-06
4.300000000000001,0.012911636359604017,0.015168316618201061,-0.09839802891065119,0.002518426117916306,0.02347438249989864,0.00563156156025002,-9.002842465299918e-05,-0.0053203804382553335,-4.398886930578882e-05,0.0037588533932089167,-6.396368295485402e-08,-0.09944642879766348,0.00016283713057212536,-6.370018518246705e-08,0.006781195241583665,-7.978499623909172e-06,-0.005310397091241641,-3.5243478497468778e-06
4.33,0.012986484244720486,0.015878790370379647,-0.09947848519277613,0.0025304886963510853,0.02388968223158372,0.005684405644302615,-8.899230769321424e-05,-0.005490510139464,-4.4794051737184766e-05,0.0037629122516422697,-6.424791622187364e-08,-0.09927137227394586,0.00016938685838427595,-5.212298100282175e-08,0.0054445763889793605,-7.969315055383982e-06,-0.0054827040604215555,-3.523914994014314e-06
4.365,0.013423584190604743,0.01632022287435575,-0.10002091173555527,0.008437439133331281,0.017557696868379935,0.002672551004891943,-9.05171789646886e-05,-0.005664702727925519,-4.607578603588181e-05,0.003768376264061457,-6.454105084533916e-08,-0.09912017136173797,0.00018775941257374168,-3.6198127344700496e-08,0.0036370583353701213,-7.958629246079307e-06,-0.005667505447674946,-3.523479451192106e-06
4.4,0.013720860790272127,0.01694063789568645,-0.09799114406041554,0.00857892541887395,0.017894941406325415,0.0026859089187496465,-8.133520930320161e-05,-0.005821623126206266,-4.914791129317919e-05,0.0037750504203053485,-6.477859437756173e-08,-0.09903519076606525,0.0002165276021344448,-1.8411885534272003e-08,0.0016427383109258132,-7.947968522171275e-06,-0.0058251544545278615,-3.5231471990913737e-06
4.43,0.013920799221523339,0.01712162207172696,-0.09834702721536814,0.007685670312525872,0.01209429713122745,-0.0015152639192166362,-9.260273112232653e-05,-0.0059207786736514825,-4.8638591772398605e-05,0.003782159660250084,-6.492438344681951e-08,-0.09902423036767197,0.00024831762201304964,-2.48477734734461e-09,-0.00012807292456527164,-7.938848718489142e-06,-0.005928795655225333,-3.5229719816811944e-06
4.465,0.014192227546118374,0.017548501307601327,-0.10027649536505123,0.007805093451793255,0.012299833430461149,-0.0016107134265226364,-9.80884505290547e-05,-0.006000643303711419,-4.811002430171741e-05,0.0037920714601689114,-6.503149836728212e-08,-0.09907369302606522,0.0002906657174467138,1.583601681881973e-08,-0.002150551015278274,-7.928224057376674e-06,-0.006012625032131828,-3.5228887399330518e-06
4.5,0.01454539219776052,0.01775867973469758,-0.09889272275495387,0.009141674399643307,0.00894801102265319,-0.0046241377887383806,-8.723457620707366e-05,-0.006025202570079546,-4.486515468737907e-05,0.003803933599748177,-6.506528022143767e-08,-0.09918950837372872,0.0003372733184440836,3.296338621044412e-08,-0.004017338519338665,-7.917611778083807e-06,-0.006051292401693102,-3.5229481587155334e-06
4.529999999999999,0.01482236138326698,0.018028774840104234,-0.09963554925025164,0.009266017448453567,0.009060029765976196,-0.004752226337814136,-8.190229709414965e-05,-0.0060149575891603755,-4.37366639842729e-05,0.0038158652894169087,-6.502880404034804e-08,-0.09934006292979905,0.00037897093851456496,4.5736033423153944e-08,-0.005380810420925811,-7.908527425087226e-06,-0.006043069900000132,-3.5231268917134487e-06
4.5649999999999995,0.013899536403187085,0.01738275624461494,-0.10039843658387326,-0.01120954523707951,-0.0067431089246383635,-0.0008971699196038685,-9.11895891411163e-05,-0.005956386163366468,-4.4125406829298455e-05,0.003831507526227407,-6.492244123254891e-08,-0.09955753514929866,0.0004270300804275183,5.799920051334249e-08,-0.006655408232884383,-7.897949230328863e-06,-0.005992530877246261,-3.5234595771282323e-06
4.6,0.01350244479453977,0.017143266586799655,-0.10050663930724113,-0.011492166731159159,-0.006942908034119455,-0.0009652452642328058,-8.75366548553913e-05,-0.005858945148803584,-4.793781726419866e-05,0.0038489308869200656,-6.475013313199404e-08,-0.09981011820603328,0.00047186492380591925,6.673525102461363e-08,-0.007518200009017423,-7.887407093496558e-06,-0.005898963872063999,-3.5239195499537188e-06
4.630000000000001,0.015360924025117129,0.01725925776713666,-0.10151915863980321,0.02538866170152687,-0.0016065227592747533,-0.010461952142804876,-9.106147453064041e-05,-0.00574806358688429,-4.522571457155068e-05,0.003865178159695227,-6.45541258111746e-08,-0.10004376217764259,0.0005048154951101072,7.07224876056929e-08,-0.007858901127529285,-7.878419570833031e-06,-0.005786176501929665,-3.52440560520121e-06
4.665000000000001,0.0162606453832268,0.017201527875158718,-0.10125072748633102,0.02590469590563771,-0.0016878369915005464,-0.010723350558691891,-7.876111793514443e-05,-0.005575998264454984,-5.3114386962427325e-05,0.0038851246097291194,-6.42895094713011e-08,-0.10031958311336947,0.000535395279267463,7.167458422037514e-08,-0.007842995332451547,-7.868000931763838e-06,-0.005628833022296722,-3.525039059678851e-06
4.699999999999999,0.01567152538245864,0.017331721104483222,-0.10186663869126278,0.0029301872498876946,0.0012066298296034006,-0.005028813365925089,-9.080444281162058e-05,-0.00540163902668489,-4.424055312224339e-05,0.0039057948034315615,-6.399935896787336e-08,-0.1005851726810946,0.0005552140282980641,6.850248176853893e-08,-0.0073729384132107025,-7.857674901211243e-06,-0.005450979502267475,-3.5257170089953275e-06
4.73,0.015760372072691098,0.017367681048881423,-0.10207703462356221,0.002938626884002815,0.0011918931667409538,-0.005148679350185148,-9.00763235205382e-05,-0.005242577054677343,-5.102230470788171e-05,0.003923705837040715,-6.374466118601433e-08,-0.1007902404627817,0.0005613255716519155,6.239198560066926e-08,-0.006602120311034788,-7.8489221518906e-06,-0.005290131592736263,-3.526304099884108e-06
4.765000000000001,0.01598270534304902,0.01694583064568178,-0.10168381991161368,0.004788562332805668,-0.006053150212380842,-0.006890632132012797,-9.365622662738103e-05,-0.005047198360319971,-4.391620633059645e-05,0.003944354190154265,-6.345726596451629e-08,-0.10099508119167815,0.0005568843162800831,5.227007394868157e-08,-0.005382439578230293,-7.838823018251852e-06,-0.005103696253514509,-3.526963379787046e-06
4.800000000000001,0.01615237361693289,0.016730910256001152,-0.10172161741002128,0.004838084383777641,-0.0062261853737197725,-0.007064678454440809,-9.254187812635099e-05,-0.004883641398270022,-5.0387365984949646e-05,0.003964297486232838,-6.319519423939523e-08,-0.10115164764031045,0.0005396003783465133,3.936136167563659e-08,-0.0038681776312222446,-7.828860546773572e-06,-0.004927991353473971,-3.5275649592902333e-06
